CITY;STATE;CAPITAL;IBGE_RES_POP;IBGE_RES_POP_BRAS;IBGE_DU;IBGE_DU_URBAN;IBGE_DU_RURAL;IBGE_POP;IDHM Ranking 2010;IDHM;IDHM_Renda;IDHM_Longevidade;IDHM_Educacao;LONG;LAT;ALT;AREA;REGIAO_TUR;CATEGORIA_TUR;ESTIMATED_POP;RURAL_URBAN;GVA_AGROPEC;GVA_INDUSTRY;GVA_SERVICES;GVA_PUBLIC;GVA_TOTAL;TAXES;GDP;GDP_CAPITA;GVA_MAIN;MUN_EXPENDIT;COMP_TOT;COMP_A;COMP_B;COMP_C;COMP_D;COMP_E;COMP_F;COMP_G;COMP_H;COMP_I;COMP_J;COMP_K;COMP_L;COMP_M;COMP_N;COMP_O;COMP_P;COMP_Q;COMP_R;COMP_S;COMP_T;COMP_U;HOTELS;BEDS;Pr_Agencies;Pu_Agencies;Pr_Bank;Pu_Bank;Cars;Motorcycles;UBER;POST_OFFICES
Abadia De Goiás;GO;0;6876;6876;2137;1546;591;5300;1689;0.7080;0.6870;0.8300;0.6220;-49.4405;-16.7588;893.6015;147.2560;0;0;8583;Urbano;6201;27991;74750;36915;145858;20554;166412;20665.0000;Demais serviços;28227690;284;5;1;56;0;2;29;110;26;4;5;0;2;10;12;4;6;6;1;5;0;0;0;0;0;0;0;0;2158;1246;0;1
Abadia Dos Dourados;MG;0;6704;6704;2328;1481;847;4154;2207;0.6890;0.6930;0.8390;0.5630;-47.3968;-18.4876;753.1249;881.0640;Caminhos Do Cerrado;D;6972;Rural Adjacente;50525;25918;62689;28084;167215;12873;180089;25592.0000;Demais serviços;17909274;476;6;6;30;1;2;34;190;70;28;11;0;4;15;29;2;9;14;6;19;0;0;0;0;0;0;0;0;2227;1142;0;1
Abadiânia;GO;0;15757;15609;4655;3233;1422;10656;2202;0.6890;0.6710;0.8410;0.5790;-48.7188;-16.1827;1017.5506;1045.1270;Região Turística Do Ouro E Cristais;C;19614;Rural Adjacente;42839;16728;138199;63396;261162;26823;287984;15628.0000;Demais serviços;37513019;288;5;9;26;0;2;7;117;12;57;2;1;0;7;15;3;11;5;1;8;0;0;1;34;1;1;1;1;2838;1426;0;3
Abaetetuba;PA;0;141100;141040;31061;19057;12004;82956;3530;0.6280;0.5790;0.7980;0.5370;-48.8844;-1.7235;10.1203;1610.6510;Araguaia-Tocantins;D;156292;Urbano;140464;58610;468129;486872;1154075;95180;1249255;8222.0000;Administração, defesa, educação e saúde públicas e seguridade social;0;931;4;2;43;0;1;27;500;16;31;6;1;1;22;16;2;155;33;15;56;0;0;0;0;2;4;2;4;5277;25661;0;2
Abaeté;MG;0;22690;22690;7694;6667;1027;18464;1994;0.6980;0.7200;0.8480;0.5560;-45.4462;-19.1558;644.7399;1817.0670;Lago De Três Marias;D;23223;Urbano;113825;31003;172333;86081;403241;26994;430235;18250.0000;Demais serviços;0;621;18;1;40;0;1;20;303;62;30;9;6;4;28;27;2;15;19;9;27;0;0;0;0;2;2;2;2;6928;2953;0;4
Abaiara;CE;0;10496;10496;2791;1251;1540;4538;3522;0.6280;0.5400;0.7480;0.6120;-39.0475;-7.3570;403.1085;180.0800;0;0;11663;Rural Adjacente;4435;5876;22808;35990;69109;4043;73151;6370.0000;Administração, defesa, educação e saúde públicas e seguridade social;0;86;1;0;4;0;0;6;48;2;10;2;0;0;2;3;2;0;2;0;4;0;0;0;0;0;0;0;0;553;1674;0;1
Abaré;BA;0;17064;17064;4332;2379;1953;8994;4756;0.5750;0.5330;0.7760;0.4600;-39.1166;-8.7234;316.3820;1604.9230;0;0;19814;Rural Remoto;9176;6703;36922;65748;118549;6205;124754;6257.0000;Administração, defesa, educação e saúde públicas e seguridade social;0;87;2;0;3;0;0;0;71;0;1;1;0;0;0;1;2;0;2;0;4;0;0;0;0;1;0;1;0;613;1532;0;1
Abatiá;PR;0;7764;7764;2499;1877;622;5685;2258;0.6870;0.6760;0.8040;0.5960;-50.3125;-23.3005;579.2955;228.7170;0;0;7507;Rural Adjacente;73341;8840;42999;34103;159283;5765;165048;21174.0000;Agricultura, inclusive apoio à agricultura e a pós colheita;0;285;5;0;20;0;1;10;133;18;14;8;0;4;11;26;2;8;9;4;12;0;0;0;0;0;1;0;1;2168;912;0;1
Abaíra;BA;0;8316;8316;2572;1193;1379;3725;4086;0.6030;0.5770;0.7460;0.5100;-41.6616;-13.2535;674.2237;538.6770;Chapada Diamantina;D;8767;Rural Remoto;12413;3437;17991;28464;62305;2020;64325;6983.0000;Administração, defesa, educação e saúde públicas e seguridade social;0;191;6;0;8;0;1;4;97;5;5;3;1;0;5;5;2;8;1;2;38;0;0;1;24;0;0;0;0;896;696;0;1
Abdon Batista;SC;0;2653;2653;848;234;614;724;2092;0.6940;0.6600;0.8120;0.6250;-51.0253;-27.6090;720.9758;237.1640;Vale Do Contestado;D;2577;Rural Adjacente;24997;3579;16011;17843;62429;2313;64742;24739.0000;Administração, defesa, educação e saúde públicas e seguridade social;19506956;69;2;0;4;0;0;2;35;8;3;1;1;0;4;0;2;1;3;0;3;0;0;0;0;0;1;0;1;976;345;0;1
Abel Figueiredo;PA;0;6780;6780;1880;1650;230;5998;3657;0.6220;0.6250;0.8000;0.4810;-48.3968;-4.9514;192.7567;614.1310;Amazônia Atlântica;E;7382;Intermediário Adjacente;21382;5314;20515;27736;74948;4710;79658;11096.0000;Administração, defesa, educação e saúde públicas e seguridade social;0;72;0;0;9;0;1;0;41;1;0;1;0;0;2;1;6;6;0;0;4;0;0;0;0;0;1;0;1;279;807;0;1
Abelardo Luz;SC;0;17100;17084;4739;2694;2045;9544;2032;0.6960;0.6840;0.8520;0.5780;-52.3365;-26.5630;724.9871;953.9920;Grande Oeste;D;17847;Rural Adjacente;212531;78176;197092;78972;566772;37508;604280;33983.0000;Agricultura, inclusive apoio à agricultura e a pós colheita;0;464;8;2;40;1;1;25;177;67;25;9;4;7;26;16;2;14;13;4;23;0;0;0;0;1;2;1;2;5823;2001;0;1
Abre Campo;MG;0;13311;13294;3930;2202;1728;7101;3046;0.6540;0.6460;0.8230;0.5250;-42.4810;-20.3014;589.8301;470.5510;Montanhas E Fé;D;13465;Rural Adjacente;43828;10449;72852;50664;177793;10111;187904;13690.0000;Demais serviços;0;369;3;2;33;0;1;12;148;31;17;5;3;4;17;12;4;11;22;6;38;0;0;0;0;0;1;0;1;2838;1851;0;2
Abreu E Lima;PE;0;94429;94407;28182;25944;2238;81482;2477;0.6790;0.6250;0.7910;0.6320;-34.8991;-7.9044;27.0606;126.1930;Costa Náutica Coroa Do Avião;D;99622;Urbano;7799;384262;526039;336142;1254241;170265;1424506;14390.0000;Demais serviços;119645700;841;1;0;130;0;2;26;434;27;36;14;3;4;18;30;2;47;20;6;41;0;0;0;0;2;3;2;3;14579;10122;0;1
Abreulândia;TO;0;2391;2391;760;445;315;1476;2786;0.6650;0.7000;0.8350;0.5020;-49.1624;-9.6218;238.8619;1895.2120;0;0;2564;Rural Adjacente;20313;2108;6802;16521;45744;1634;47378;18543.0000;Administração, defesa, educação e saúde públicas e seguridade social;9712530;27;4;0;0;0;0;3;11;0;1;1;0;0;1;1;4;0;0;0;1;0;0;0;0;0;0;0;0;190;318;0;1
Acaiaca;MG;0;3920;3920;1264;834;430;2550;3493;0.6300;0.6100;0.8230;0.4990;-43.1482;-20.3604;492.7910;101.8860;Serras De Minas;E;3994;Rural Adjacente;3839;1892;11979;17696;35406;1018;36424;8969.0000;Administração, defesa, educação e saúde públicas e seguridade social;12182050;60;1;3;8;0;0;2;24;1;4;1;0;0;1;3;2;5;1;0;4;0;0;0;0;0;0;0;0;899;598;0;1
Acajutiba;BA;0;14653;14643;4116;3632;484;12727;4613;0.5820;0.5600;0.7230;0.4870;-38.0183;-11.6626;183.9284;181.4750;0;0;15129;Rural Adjacente;23177;7023;33546;48143;111889;3270;115158;7305.0000;Administração, defesa, educação e saúde públicas e seguridade social;27275310;96;2;0;4;0;0;1;57;2;3;1;2;0;1;2;3;3;4;2;9;0;0;0;0;0;1;0;1;834;1444;0;1
Acarape;CE;0;15338;15338;4186;2181;2005;8189;4009;0.6060;0.5590;0.7090;0.5620;-38.7056;-4.2231;94.5123;155.1690;0;0;15399;Intermediário Adjacente;4677;23265;36148;54651;118741;9650;128391;7820.0000;Administração, defesa, educação e saúde públicas e seguridade social;33078580;132;2;9;39;0;0;2;54;4;2;0;0;0;1;3;3;5;0;0;8;0;0;0;0;0;0;0;0;1089;1246;0;2
Acaraú;CE;0;57551;57542;14680;7410;7270;24117;4125;0.6010;0.5540;0.7580;0.5170;-40.1182;-2.8853;17.2914;845.4680;Litoral Extremo Oeste;C;62557;Rural Adjacente;74353;94124;187458;188055;543990;36737;580727;9410.0000;Administração, defesa, educação e saúde públicas e seguridade social;101483436;638;41;1;38;8;0;6;363;7;28;3;0;6;9;14;2;71;17;6;18;0;0;0;0;1;3;1;3;3371;10448;0;1
Acari;RN;0;11035;11030;3298;2721;577;8260;2462;0.6790;0.6330;0.7790;0.6340;-36.6437;-6.4421;258.8351;608.4660;Polo Seridó;D;11152;Intermediário Adjacente;12580;9275;30356;50992;103203;5380;108583;9577.0000;Administração, defesa, educação e saúde públicas e seguridade social;22943205;167;4;0;33;1;0;5;83;0;5;1;1;1;2;4;2;12;2;1;10;0;0;1;34;0;0;0;0;1259;1802;0;1
Acará;PA;0;53569;53516;11833;3014;8819;12590;5513;0.5060;0.5170;0.7570;0.3320;-48.2005;-1.9634;7.3950;4343.5500;Araguaia-Tocantins;D;55513;Rural Adjacente;441282;43934;97080;188941;771238;17178;788416;14579.0000;Agricultura, inclusive apoio à agricultura e a pós colheita;106368816;162;8;3;6;0;0;4;99;3;2;1;0;0;1;3;3;12;0;1;16;0;0;0;0;1;1;1;1;652;3342;0;1
Acauã;PI;0;6749;6749;1877;266;1611;901;5408;0.5280;0.5170;0.6920;0.4110;-41.0836;-8.2208;372.3118;1279.5860;Polo Histórico Cultural;E;7065;Rural Adjacente;6047;1556;7052;25754;40410;2193;42603;6129.0000;Administração, defesa, educação e saúde públicas e seguridade social;14935714;77;0;0;2;0;1;0;20;4;3;1;0;0;0;2;7;1;0;0;36;0;0;0;0;0;0;0;0;272;1014;0;1
Aceguá;RS;0;4394;4265;1398;314;1084;1059;2259;0.6870;0.7030;0.8520;0.5410;-54.1647;-31.8640;237.9222;1551.3390;Pampa Gaúcho;D;4858;Urbano;130383;10633;66901;30193;238110;12222;250332;52913.0000;Agricultura, inclusive apoio à agricultura e a pós colheita;22028720;168;8;0;8;0;1;2;86;8;9;0;1;0;2;13;3;6;3;5;13;0;0;0;0;0;1;0;1;2046;591;0;2
Acopiara;CE;0;51160;51160;15041;7885;7156;25159;4279;0.5950;0.5630;0.7240;0.5170;-39.4557;-6.0928;312.9576;2265.3490;0;0;53931;Rural Adjacente;35058;17009;137662;155450;345178;26523;371701;6966.0000;Administração, defesa, educação e saúde públicas e seguridade social;85042995;365;2;0;26;0;0;6;255;1;15;5;1;4;7;5;2;5;2;4;25;0;0;1;22;1;3;1;3;3158;11056;0;10
Acorizal;MT;0;5516;5516;1742;899;843;2926;3523;0.6280;0.5940;0.8160;0.5100;-56.3716;-15.1979;201.7810;1014.0290;0;0;5424;Rural Adjacente;9896;13184;13178;28666;64923;5914;70837;13363.0000;Administração, defesa, educação e saúde públicas e seguridade social;0;57;2;2;5;0;0;5;28;1;3;0;0;0;2;2;3;0;0;0;4;0;0;1;18;0;0;0;0;492;529;0;3
Acrelândia;AC;0;12538;12535;3473;1679;1794;5902;4079;0.6040;0.5840;0.8080;0.4660;-67.0523;-10.0738;205.8940;1807.9480;0;0;15020;Rural Adjacente;91144;14019;32080;85106;222349;5262;227611;16120.0000;Administração, defesa, educação e saúde públicas e seguridade social;22507579;107;2;0;15;0;0;0;56;1;5;1;0;0;1;1;3;8;6;0;8;0;0;1;27;0;1;0;1;1223;3343;0;1
Acreúna;GO;0;20279;20270;6485;5636;849;16969;2282;0.6860;0.7100;0.8220;0.5530;-50.3750;-17.3982;542.3927;1565.9970;0;0;22182;Urbano;232884;47274;207423;86030;573612;40799;614411;28049.0000;Agricultura, inclusive apoio à agricultura e a pós colheita;46887656;318;19;0;25;0;0;4;160;23;15;3;0;3;9;10;6;16;8;3;14;0;0;0;0;2;1;2;1;4892;3461;0;1
Adamantina;SP;0;33797;33769;11335;10777;558;31695;69;0.7900;0.7720;0.8520;0.7500;-51.0734;-21.6883;451.1188;411.9870;Águas Do Oeste;C;35023;Urbano;41900;298402;587637;151089;1079028;73414;1152441;32839.0000;Demais serviços;115703288;1726;272;0;102;0;4;35;663;102;99;41;21;28;75;79;2;32;65;20;86;0;0;0;0;3;2;3;2;14851;6481;0;1
Adelândia;GO;0;2477;2471;846;746;100;2190;1858;0.7020;0.6640;0.8360;0.6220;-50.1631;-16.4150;641.1067;115.3530;0;0;2517;Rural Adjacente;7943;2749;8462;11115;30269;1695;31964;12481.0000;Administração, defesa, educação e saúde públicas e seguridade social;11102682;57;1;0;10;0;0;1;30;3;0;0;0;0;1;5;4;1;0;1;0;0;0;0;0;0;0;0;0;584;393;0;1
Adolfo;SP;0;3557;3557;1200;1081;119;3200;1044;0.7300;0.7100;0.8440;0.6480;-49.6497;-21.2327;425.3921;211.0550;Coração Do Tietê;D;3571;Rural Adjacente;29090;6145;27722;21019;83976;2490;86466;23912.0000;Agricultura, inclusive apoio à agricultura e a pós colheita;0;81;10;2;3;0;0;2;33;5;4;0;0;0;2;2;2;3;1;3;9;0;0;0;0;1;0;1;0;1394;401;0;1
Adrianópolis;PR;0;6376;6376;1976;643;1333;2050;2746;0.6670;0.6440;0.8170;0.5630;-48.9918;-24.6617;180.7059;1349.3110;0;0;5983;Rural Adjacente;29900;107937;40707;30010;208554;30527;239080;37991.0000;Indústrias de transformação;27071690;145;3;3;3;0;0;8;74;18;13;1;1;0;1;3;3;2;2;0;10;0;0;0;0;1;0;1;0;1437;925;0;3
Adustina;BA;0;15702;15702;4544;1704;2840;5545;5261;0.5460;0.5260;0.7180;0.4320;-38.1155;-10.5296;280.7102;632.1390;Caminhos Do Sertão;E;16784;Rural Adjacente;14280;4420;29092;49456;97248;4230;101478;5881.0000;Administração, defesa, educação e saúde públicas e seguridade social;29542520;92;0;0;2;0;0;0;67;0;0;2;0;0;4;2;2;2;0;0;11;0;0;0;0;0;0;0;0;262;1185;0;1
Afogados Da Ingazeira;PE;0;35088;35088;10879;8667;2212;27335;2974;0.6570;0.6230;0.8070;0.5650;-37.6377;-7.7483;515.3462;377.6960;Território Da Poesia E Da Cantoria;C;37111;Urbano;7598;33313;180016;127393;348319;37330;385649;10461.0000;Administração, defesa, educação e saúde públicas e seguridade social;68786461;527;1;0;27;0;2;13;305;3;24;15;5;2;11;15;9;15;19;9;52;0;0;0;0;1;2;1;2;5737;10461;0;1
Afonso Bezerra;RN;0;10844;10844;2948;1602;1346;5736;4539;0.5850;0.5600;0.7130;0.5020;-36.5091;-5.4987;64.5032;576.1800;Polo Costa Branca;D;11041;Rural Adjacente;6021;3493;18878;53155;81547;3238;84785;7565.0000;Administração, defesa, educação e saúde públicas e seguridade social;29729803;72;1;0;3;0;0;3;49;0;2;1;0;0;1;4;2;4;0;2;0;0;0;0;0;0;0;0;0;655;838;0;1
Afonso Cláudio;ES;0;31091;31091;9859;5310;4549;15757;2744;0.6670;0.6610;0.8250;0.5440;-41.1255;-20.0770;360.7991;941.1880;Montanhas Capixabas;D;30720;Rural Adjacente;103014;52082;167838;124251;447185;25292;472477;14579.0000;Demais serviços;69220539;555;4;12;37;0;1;21;285;9;30;5;4;0;20;12;3;27;20;8;57;0;0;0;0;0;3;0;3;8131;7984;0;6
Afonso Cunha;MA;0;5905;5905;1305;734;571;3230;5406;0.5290;0.4710;0.7250;0.4340;-43.3209;-4.1350;67.1975;371.3380;0;0;6469;Rural Adjacente;2461;1600;8463;21500;34025;1434;35459;5522.0000;Administração, defesa, educação e saúde públicas e seguridade social;0;14;1;0;0;0;0;0;6;0;0;0;0;1;0;1;2;0;1;0;2;0;0;0;0;0;0;0;0;61;519;0;1
Afrânio;PE;0;17586;17586;4744;1681;3063;5841;4445;0.5880;0.5420;0.7610;0.4930;-41.0058;-8.5111;515.8429;1490.5940;0;0;19456;Rural Adjacente;8158;6727;52943;72458;140286;10053;150340;7820.0000;Administração, defesa, educação e saúde públicas e seguridade social;44498864;141;0;0;11;0;0;2;84;1;6;2;0;0;3;1;3;22;1;1;4;0;0;0;0;0;1;0;1;809;3677;0;4
Afuá;PA;0;35042;35042;6748;1979;4769;9408;5544;0.4890;0.4850;0.7740;0.3110;-50.3914;-0.1592;3.1364;8338.4380;Marajó;D;38863;Rural Remoto;107967;17984;41202;139566;306719;9272;315991;8364.0000;Administração, defesa, educação e saúde públicas e seguridade social;0;36;0;0;4;0;0;1;20;2;1;0;0;0;1;1;2;0;0;0;4;0;0;0;0;0;2;0;2;2;4;0;1
Agrestina;PE;0;22679;22679;6882;5209;1673;16935;4350;0.5920;0.5810;0.7600;0.4700;-35.9468;-8.4560;437.1549;200.5810;Encantos Do Agreste;D;24702;Intermediário Adjacente;20548;19201;75135;89128;204012;16678;220690;9025.0000;Administração, defesa, educação e saúde públicas e seguridade social;48941210;225;5;2;23;0;2;4;100;3;13;3;0;1;5;5;6;18;9;2;24;0;0;1;8;0;1;0;1;2825;2929;0;3
Agricolândia;PI;0;5098;5098;1536;1100;436;3594;4185;0.5990;0.5500;0.7420;0.5260;-42.6592;-5.7955;260.4377;112.3920;0;0;5148;Rural Adjacente;1981;1454;6406;18108;27949;1571;29519;5824.0000;Administração, defesa, educação e saúde públicas e seguridade social;12532965;39;0;0;1;0;0;3;22;0;0;0;0;0;0;0;2;1;1;0;9;0;0;0;0;0;0;0;0;282;1185;0;1
Agrolândia;SC;0;9323;9318;2952;1927;1025;5951;1167;0.7250;0.7270;0.8270;0.6330;-49.8257;-27.4005;383.2162;206.9140;Caminhos Do Alto Vale;D;10711;Rural Adjacente;36177;55228;75110;43982;210497;15304;225802;21655.0000;Demais serviços;0;490;3;0;151;1;0;15;147;19;22;1;2;9;10;20;2;14;8;12;54;0;0;0;0;1;1;1;1;4218;2146;0;1
Agronômica;SC;0;4904;4904;1511;589;922;1858;754;0.7410;0.7740;0.8840;0.5950;-49.7184;-27.2697;342.1897;129.7740;Caminhos Do Alto Vale;D;5385;Urbano;47908;22249;35730;24435;130322;8068;138390;25766.0000;Agricultura, inclusive apoio à agricultura e a pós colheita;16270811;223;1;0;61;1;2;9;65;23;9;0;1;6;2;5;2;7;2;4;23;0;0;0;0;0;0;0;0;2135;903;0;1
Aguanil;MG;0;4054;4054;1353;791;562;2296;2845;0.6630;0.6720;0.8450;0.5130;-45.3895;-20.9374;840.8977;232.0910;0;0;4448;Rural Adjacente;22571;2520;18121;19636;62848;1930;64778;14702.0000;Administração, defesa, educação e saúde públicas e seguridade social;13891248;91;2;0;16;0;0;0;48;7;4;0;0;1;4;3;2;0;1;1;2;0;0;0;0;0;0;0;0;1065;296;0;2
Aguaí;SP;0;32148;32126;9899;8970;929;28182;1460;0.7150;0.7030;0.8580;0.6060;-46.9797;-22.0597;662.4830;474.5540;0;0;35954;Urbano;115600;146492;307156;117822;687071;77217;764288;21720.0000;Demais serviços;0;799;149;9;54;0;3;21;333;44;51;8;2;5;21;35;2;12;21;10;19;0;0;0;0;3;2;3;2;11167;5754;0;1
Agudo;RS;0;16722;16718;5431;2410;3021;6792;2103;0.6940;0.7520;0.8470;0.5240;-53.2587;-29.6457;65.7938;534.6240;Central;D;16524;Rural Adjacente;100337;72158;140968;73970;387433;36215;423647;24772.0000;Demais serviços;42334740;485;0;0;49;1;0;11;180;76;19;4;4;10;16;12;3;19;16;12;53;0;0;0;0;0;3;0;3;5888;2075;0;1
Agudos;SP;0;34524;34515;10201;9769;432;32261;662;0.7450;0.7050;0.8450;0.6940;-48.9902;-22.4740;601.3844;966.7080;Coração Paulista;D;37023;Urbano;59175;1393905;628745;160194;2242020;320966;2562986;69829.0000;Indústrias de transformação;142168689;840;46;0;91;0;3;38;365;50;64;3;5;4;33;36;2;23;27;15;35;0;0;0;0;3;2;3;2;12644;4808;0;2
Agudos Do Sul;PR;0;8270;8270;2579;879;1700;1826;2900;0.6600;0.6710;0.7900;0.5430;-49.3387;-25.9906;869.3346;192.2610;Rotas Do Pinhão;D;9269;Rural Adjacente;59237;8979;53726;36392;158334;9633;167967;18513.0000;Agricultura, inclusive apoio à agricultura e a pós colheita;17241225;148;0;1;11;0;1;7;80;15;8;0;0;0;2;7;2;1;8;1;4;0;0;0;0;1;0;1;0;3042;1182;0;2
Aguiar;PB;0;5530;5530;1660;864;796;2699;4229;0.5970;0.6320;0.7530;0.4470;-38.1776;-7.0948;272.1856;344.7080;0;0;5571;Rural Adjacente;4931;2181;10268;25408;42788;1560;44348;7966.0000;Administração, defesa, educação e saúde públicas e seguridade social;17161264;28;0;0;1;0;1;2;12;1;2;0;0;0;0;0;2;2;1;0;4;0;0;0;0;0;0;0;0;272;721;0;1
Aguiarnópolis;TO;0;5162;5162;1323;1067;256;4117;2981;0.6570;0.6180;0.8040;0.5710;-47.4705;-6.5472;173.1937;235.3940;0;0;6572;Urbano;38385;7300;38614;36937;121237;13384;134621;21345.0000;Administração, defesa, educação e saúde públicas e seguridade social;16061415;42;3;2;2;0;0;5;13;3;5;0;0;0;0;1;4;2;0;0;2;0;0;0;0;0;0;0;0;472;1156;0;1
Aimorés;MG;0;24959;24959;8242;6571;1671;19057;2340;0.6840;0.6850;0.8100;0.5760;-41.0733;-19.4920;64.0000;1348.9130;Trilhas Do Rio Doce;D;25193;Intermediário Adjacente;44773;79812;166682;97149;388416;21787;410203;15959.0000;Demais serviços;45443312;490;4;8;32;0;1;15;215;29;31;3;0;4;23;13;2;30;25;8;47;0;0;0;0;1;2;1;2;3769;4838;0;9
Aiquara;BA;0;4602;4602;1376;786;590;2673;4573;0.5830;0.5730;0.7330;0.4710;-39.8858;-14.1273;155.1018;167.8770;0;0;4478;Rural Adjacente;16939;2591;8921;20020;48471;1345;49816;10499.0000;Administração, defesa, educação e saúde públicas e seguridade social;0;34;2;0;0;0;0;2;22;0;0;0;0;0;3;0;2;1;0;0;2;0;0;0;0;0;0;0;0;172;260;0;1
Aiuaba;CE;0;16203;16203;4451;1252;3199;3939;4871;0.5690;0.5180;0.7490;0.4740;-40.1232;-6.5633;472.2246;2434.4230;0;0;17303;Rural Adjacente;11972;2477;29124;53934;97506;4167;101674;5947.0000;Administração, defesa, educação e saúde públicas e seguridade social;31669431;94;4;0;3;0;0;1;67;0;1;0;0;0;3;1;2;2;2;0;8;0;0;0;0;0;1;0;1;423;2253;0;2
Aiuruoca;MG;0;6162;6154;2028;1043;985;3042;2735;0.6680;0.6770;0.8710;0.5050;-44.6028;-21.9759;979.4320;649.6800;Terras Altas Da Mantiqueira;D;6032;Rural Adjacente;31727;4855;32791;24702;94075;4553;98629;15846.0000;Demais serviços;13778976;112;3;1;13;0;0;0;45;9;14;2;1;0;3;1;2;0;5;4;9;0;0;0;0;1;0;1;0;1585;914;0;1
Ajuricaba;RS;0;7255;7253;2467;1430;1037;4098;503;0.7530;0.7630;0.8500;0.6580;-53.7728;-28.2377;329.6848;322.6710;Rota Do Yucumã;D;7063;Rural Adjacente;92359;17703;101151;33158;244371;19168;263539;35749.0000;Agricultura, inclusive apoio à agricultura e a pós colheita;0;295;4;0;27;0;0;4;128;26;9;5;1;1;10;2;2;9;9;17;41;0;0;0;0;0;2;0;2;3072;872;0;1
Alagoa;MG;0;2709;2706;875;364;511;1099;3145;0.6490;0.6340;0.8320;0.5180;-44.6381;-22.1711;1115.5199;161.3560;Terras Altas Da Mantiqueira;E;2683;Rural Adjacente;5039;1801;8576;14932;30348;1088;31436;11406.0000;Administração, defesa, educação e saúde públicas e seguridade social;11323018;35;2;0;4;0;0;0;19;3;0;0;0;0;0;1;2;2;2;0;0;0;0;0;0;0;0;0;0;479;332;0;1
Alagoa Grande;PB;0;28479;28479;8014;5137;2877;17520;4599;0.5820;0.5760;0.7970;0.4300;-35.6339;-7.0368;143.2507;320.5630;Brejo;D;28623;Intermediário Adjacente;16118;11376;75378;123103;225975;13682;239657;8378.0000;Administração, defesa, educação e saúde públicas e seguridade social;45438117;238;0;1;19;0;0;6;112;4;5;3;0;6;5;5;3;22;3;1;43;0;0;0;0;1;2;1;2;1788;3396;0;3
Alagoa Nova;PB;0;19681;19681;5435;2833;2602;9794;4734;0.5760;0.5670;0.7490;0.4510;-35.7595;-7.0578;514.3035;123.7310;Brejo;D;20589;Rural Adjacente;80031;24667;46472;89564;240734;10124;250857;12180.0000;Administração, defesa, educação e saúde públicas e seguridade social;39834146;121;4;0;14;0;0;1;79;1;1;1;0;1;2;2;3;3;2;1;6;0;0;0;0;0;1;0;1;1647;1917;0;1
Alagoinha;PE;0;13759;13753;4108;2410;1698;7769;4184;0.5990;0.5690;0.8010;0.4720;-36.7755;-8.4663;731.3153;216.4520;0;0;14554;Rural Adjacente;21339;2581;33069;57171;114159;4812;118971;8244.0000;Administração, defesa, educação e saúde públicas e seguridade social;31782188;61;0;0;5;0;0;0;43;1;0;0;0;0;3;1;4;2;0;0;2;0;0;0;0;0;1;0;1;1210;1153;0;1
Alagoinha;PB;0;13576;13576;3703;2490;1213;8998;4268;0.5950;0.5740;0.7950;0.4620;-35.5455;-6.9481;142.4201;96.9800;Brejo;E;14367;Rural Adjacente;8558;3191;22820;61290;95859;3706;99564;6926.0000;Administração, defesa, educação e saúde públicas e seguridade social;29417339;108;1;0;10;1;0;3;54;1;0;0;0;0;1;2;2;14;1;2;16;0;0;0;0;0;0;0;0;936;1703;0;1
Alagoinha Do Piauí;PI;0;7341;7341;2278;885;1393;2668;5394;0.5310;0.5350;0.7160;0.3910;-40.9346;-7.0082;279.2437;535.8070;0;0;7636;Rural Adjacente;3274;1601;10680;28284;43839;1996;45834;6099.0000;Administração, defesa, educação e saúde públicas e seguridade social;13740823;53;0;0;0;0;0;0;30;0;0;0;0;0;1;1;4;5;3;0;9;0;0;0;0;0;0;0;0;485;639;0;1
Alagoinhas;BA;0;141949;141929;41702;36764;4938;123051;2385;0.6830;0.6810;0.7900;0.5920;-38.4226;-12.1342;141.1371;707.5580;Caminhos Do Sertão;C;150832;Urbano;73997;614852;1399739;483018;2571605;605970;3177575;20453.0000;Demais serviços;290162506;2231;23;5;118;0;6;63;1006;72;121;33;11;14;68;142;3;169;144;30;203;0;0;1;120;5;5;3;3;24457;21546;0;3
Alambari;SP;0;4884;4876;1526;1135;391;3671;1569;0.7120;0.6820;0.8050;0.6580;-47.8936;-23.5539;609.6593;159.6000;0;0;5918;Urbano;29984;7031;23785;23097;83897;3387;87284;15427.0000;Administração, defesa, educação e saúde públicas e seguridade social;0;137;61;0;14;0;0;4;31;3;8;2;0;3;0;2;2;2;0;0;5;0;0;0;0;0;0;0;0;1260;696;0;1
Albertina;MG;0;2913;2910;899;639;260;1998;2617;0.6730;0.6840;0.8130;0.5490;-46.6116;-22.1998;992.1060;58.0100;Malhas Do Sul De Minas;E;3003;Rural Adjacente;8057;4025;38868;15487;66438;11982;78420;25796.0000;Comércio e reparação de veículos automotores e motocicletas;11479747;72;1;0;13;0;0;4;30;1;5;0;0;0;3;1;2;4;0;3;5;0;0;0;0;0;0;0;0;947;379;0;1
Alcantil;PB;0;5239;5239;1567;639;928;2062;4673;0.5780;0.5500;0.7650;0.4580;-36.0606;-7.7415;518.6663;305.9880;0;0;5473;Rural Adjacente;3994;1383;6694;25987;38057;900;38957;7115.0000;Administração, defesa, educação e saúde públicas e seguridade social;13445071;37;1;0;5;0;0;0;16;1;0;1;0;0;0;1;2;6;1;0;3;0;0;0;0;0;0;0;0;297;274;0;1
Alcinópolis;MS;0;4569;4562;1587;1071;516;3008;1578;0.7110;0.7330;0.8580;0.5720;-53.7081;-18.3250;430.9299;4399.6810;Rota Norte;E;5268;Rural Remoto;81036;4294;24192;38195;147717;9296;157013;30703.0000;Pecuária, inclusive apoio à pecuária;30320410;60;7;0;2;0;2;1;28;3;4;0;1;0;3;1;2;1;3;0;2;0;0;2;59;0;0;0;0;847;1044;0;1
Alcobaça;BA;0;21271;21261;6068;3240;2828;11788;3982;0.6080;0.6110;0.7710;0.4760;-39.1942;-17.5189;6.3989;1482.2850;Costa Das Baleias;C;22449;Rural Adjacente;80343;12392;79155;78024;249914;10220;260134;11150.0000;Administração, defesa, educação e saúde públicas e seguridade social;48798422;176;7;0;6;0;0;4;98;8;22;0;0;0;3;4;2;4;0;2;16;0;0;0;0;0;2;0;2;1342;2032;0;2
Alcântara;MA;0;21851;21851;6084;1683;4401;6383;4798;0.5730;0.5250;0.7530;0.4750;-44.4170;-2.4033;29.7195;1168.2460;Polo  São Luís;D;22083;Rural Adjacente;14464;7861;29391;61419;113136;4359;117495;5423.0000;Administração, defesa, educação e saúde públicas e seguridade social;46725620;124;3;0;3;0;0;8;32;3;4;0;0;0;0;4;2;3;2;2;58;0;0;1;25;1;0;1;0;327;1282;0;1
Alcântaras;CE;0;10771;10762;2859;976;1883;3446;4144;0.6000;0.5490;0.7510;0.5240;-40.5446;-3.5870;655.5010;138.6050;Vale Do Acaraú;E;11529;Rural Adjacente;4395;2209;14985;36237;57827;1755;59582;5231.0000;Administração, defesa, educação e saúde públicas e seguridade social;0;82;0;0;3;0;0;2;45;2;1;0;0;1;0;5;2;2;0;1;18;0;0;0;0;0;0;0;0;668;2963;0;2
Aldeias Altas;MA;0;23952;23952;5795;3388;2407;13620;5492;0.5130;0.5000;0.7200;0.3740;-43.4687;-4.6308;80.4872;1942.1210;0;0;26302;Intermediário Adjacente;31990;9705;38559;81625;161878;7373;169252;6481.0000;Administração, defesa, educação e saúde públicas e seguridade social;57710610;91;1;0;2;0;0;0;35;1;1;0;0;0;0;1;2;36;0;0;12;0;0;0;0;0;0;0;0;327;2271;0;0
Alecrim;RS;0;7045;7008;2473;806;1667;2160;2628;0.6720;0.6830;0.8520;0.5220;-54.7671;-27.6611;307.8533;316.5100;Rota Do Rio Uruguai;D;6077;Rural Adjacente;28756;3209;36557;28259;96780;4394;101174;14881.0000;Administração, defesa, educação e saúde públicas e seguridade social;17492090;138;1;0;9;0;0;0;73;5;6;0;1;3;3;3;2;9;5;8;10;0;0;0;0;0;1;0;1;2332;1076;0;1
Alegre;ES;0;30768;30768;9960;7198;2762;20375;1277;0.7210;0.7080;0.8390;0.6300;-41.5365;-20.7633;258.9034;772.0000;Caparaó;C;30568;Intermediário Adjacente;48037;100250;185605;127799;461691;25614;487304;15145.0000;Demais serviços;75746241;754;3;9;36;0;1;19;358;16;66;7;3;1;34;36;4;38;29;18;76;0;0;1;27;1;3;1;3;6761;4542;0;0
Alegrete;RS;0;77653;77589;25963;23062;2901;69238;791;0.7400;0.7200;0.8490;0.6640;-55.7959;-29.7820;94.7312;7800.1630;Fronteira;C;74173;Urbano;389202;207399;797319;335179;1729099;124429;1853528;23689.0000;Demais serviços;176442536;1862;22;3;76;2;3;70;980;71;113;28;7;17;60;143;6;77;45;34;105;0;0;2;154;3;4;3;3;21837;8230;0;2
Alegrete Do Piauí;PI;0;5153;5153;1489;868;621;2834;4538;0.5850;0.5640;0.7490;0.4750;-40.8579;-7.2453;410.8887;243.7320;0;0;4912;Rural Adjacente;2647;1053;9482;18740;31921;2098;34019;7036.0000;Administração, defesa, educação e saúde públicas e seguridade social;0;41;0;0;1;0;1;0;27;0;0;0;0;0;0;2;3;0;0;0;7;0;0;0;0;0;0;0;0;175;296;0;1
Alegria;RS;0;4301;4297;1495;575;920;1585;2074;0.6950;0.7170;0.8180;0.5720;-54.0574;-27.8373;358.1974;172.3960;Rota Do Rio Uruguai;E;3559;Rural Adjacente;38175;4276;33784;22283;98518;8282;106799;26144.0000;Agricultura, inclusive apoio à agricultura e a pós colheita;14802900;86;0;0;8;0;2;0;40;9;4;0;0;0;5;1;7;1;4;1;4;0;0;0;0;0;1;0;1;1224;650;0;2
Alenquer;PA;0;52626;52615;12119;6674;5445;27641;4971;0.5640;0.5290;0.7790;0.4360;-54.7409;-1.9514;39.1312;23645.4520;Tapajós;D;56480;Urbano;292652;29108;115448;206974;644181;15308;659490;11999.0000;Agricultura, inclusive apoio à agricultura e a pós colheita;0;245;3;1;14;0;0;5;179;6;2;1;1;0;2;4;3;3;7;1;13;0;0;0;0;1;3;1;3;984;7671;0;1
Alexandria;RN;0;13507;13507;3945;2732;1213;9169;4020;0.6060;0.5810;0.7790;0.4910;-38.0193;-6.4171;309.0512;381.2050;Polo Serrano;D;13602;Rural Adjacente;3193;5366;43051;62404;114016;4749;118765;8582.0000;Administração, defesa, educação e saúde públicas e seguridade social;40064068;208;2;0;4;0;1;3;129;5;7;0;0;0;4;6;3;8;10;5;21;0;0;0;0;0;1;0;1;1805;2661;0;1
Alexânia;GO;0;23814;23814;7426;6077;1349;19118;2389;0.6820;0.6640;0.8410;0.5680;-48.5096;-16.0862;1076.7189;847.8930;Região Turística Do Ouro E Cristais;C;27288;Intermediário Adjacente;49970;145341;872356;100353;1168019;232929;1400948;52952.0000;Comércio e reparação de veículos automotores e motocicletas;59707413;501;11;0;49;0;2;17;246;24;41;7;2;7;12;22;5;16;13;5;22;0;0;1;8;1;3;1;3;6673;3027;0;2
Alfenas;MG;0;73774;73735;23238;21862;1376;68964;352;0.7610;0.7370;0.8410;0.7120;-45.9489;-21.4282;877.3397;850.4460;Lago De Furnas;C;79481;Urbano;171051;387645;1176081;298291;2033069;261586;2294655;28965.0000;Demais serviços;189730328;2456;19;4;191;0;7;109;1116;67;182;46;28;32;98;127;4;70;219;28;109;0;0;1;140;5;3;4;2;27210;10138;0;5
Alfredo Chaves;ES;0;13955;13955;4584;2223;2361;6541;1608;0.7100;0.7030;0.8320;0.6110;-40.7600;-20.6303;64.7923;615.6770;Costa E Da Imigração;D;14566;Rural Adjacente;91129;62384;109342;63200;326056;24058;350114;23296.0000;Demais serviços;0;831;2;3;38;0;2;32;339;40;22;28;20;20;141;58;3;26;25;5;27;0;0;0;0;0;3;0;3;3847;3216;0;7
Alfredo Marcondes;SP;0;3891;3891;1352;1135;217;2685;761;0.7410;0.6820;0.8400;0.7100;-51.4129;-21.9527;414.1973;118.9150;0;0;4147;Urbano;6310;14824;25089;18132;64355;10077;74432;18075.0000;Demais serviços;0;107;31;0;9;0;0;3;37;3;3;0;3;1;4;6;2;0;0;0;5;0;0;0;0;0;1;0;1;1449;429;0;1
Alfredo Vasconcelos;MG;0;6075;6075;1781;1183;598;4031;2551;0.6750;0.6290;0.8340;0.5870;-43.7739;-21.1394;1066.1152;130.8150;Trilha Dos Inconfidentes;E;6831;Urbano;30249;9882;22468;26253;88852;4377;93228;13896.0000;Administração, defesa, educação e saúde públicas e seguridade social;12692164;130;4;0;12;0;0;3;49;18;4;0;0;1;3;7;4;5;6;3;11;0;0;0;0;0;0;0;0;1468;895;0;2
Alfredo Wagner;SC;0;9410;9410;2959;958;2001;2862;2723;0.6680;0.7020;0.8820;0.4810;-49.3438;-27.7054;489.0960;735.3710;Grande Florianópolis;D;9984;Rural Adjacente;135898;14491;73223;39074;262686;9079;271765;27437.0000;Agricultura, inclusive apoio à agricultura e a pós colheita;0;354;9;2;28;0;0;6;186;14;35;2;4;0;9;7;1;21;5;3;22;0;0;2;83;0;1;0;1;3283;2426;0;1
Algodão De Jandaíra;PB;0;2366;2366;676;353;323;1231;5241;0.5480;0.5320;0.7490;0.4130;-36.0061;-6.9047;444.7022;220.2480;0;0;2488;Rural Adjacente;1417;675;4344;16145;22580;574;23154;9306.0000;Administração, defesa, educação e saúde públicas e seguridade social;12540881;18;0;0;1;0;0;0;3;0;0;0;0;0;0;1;2;1;0;0;10;0;0;0;0;0;0;0;0;198;104;0;1
Alhandra;PB;0;18007;18007;5021;3166;1855;11119;4598;0.5820;0.5440;0.7780;0.4650;-34.9120;-7.4330;57.4841;182.6630;0;0;19391;Urbano;27741;91387;484574;100635;704336;159665;864001;44509.0000;Comércio e reparação de veículos automotores e motocicletas;0;173;4;0;16;0;1;12;98;4;6;1;0;3;3;4;4;3;1;1;12;0;0;0;0;0;1;0;1;1866;2641;0;2
Aliança;PE;0;37415;37415;10295;5665;4630;22615;4077;0.6040;0.5650;0.7990;0.4880;-35.2285;-7.6047;112.1885;272.7730;Engenhos E Maracatus;D;38375;Intermediário Adjacente;45103;17659;84855;160674;308291;11847;320138;8367.0000;Administração, defesa, educação e saúde públicas e seguridade social;61904662;295;13;1;17;0;0;1;180;19;9;1;0;0;11;6;3;5;4;6;19;0;0;1;48;0;1;0;1;3150;3110;0;7
Aliança Do Tocantins;TO;0;5671;5668;1726;1435;291;4743;2835;0.6630;0.6100;0.8010;0.5960;-48.9412;-11.3037;335.7009;1579.7510;0;0;5434;Intermediário Adjacente;36098;3363;18964;32038;90463;3837;94300;16945.0000;Administração, defesa, educação e saúde públicas e seguridade social;14127100;78;4;1;2;0;0;3;43;5;2;0;0;0;2;1;2;2;1;1;9;0;0;0;0;0;1;0;1;623;897;0;1
Almadina;BA;0;6357;6357;1983;1552;431;5067;4995;0.5630;0.5630;0.7510;0.4210;-39.6359;-14.7060;290.7255;245.2360;0;0;5566;Intermediário Adjacente;19224;2914;10691;21627;54455;979;55434;9144.0000;Administração, defesa, educação e saúde públicas e seguridade social;0;45;0;0;2;0;0;1;32;0;2;0;0;0;0;1;2;1;0;0;4;0;0;0;0;0;0;0;0;341;224;0;1
Almas;TO;0;7586;7586;2090;1607;483;5933;3384;0.6360;0.6160;0.7960;0.5240;-47.1742;-11.5745;420.7404;4013.2430;Serras Gerais;D;7131;Intermediário Remoto;60996;4076;15287;41025;121384;4075;125459;17093.0000;Administração, defesa, educação e saúde públicas e seguridade social;0;73;5;2;5;0;0;2;41;1;5;0;0;0;3;2;2;1;1;0;3;0;0;1;70;0;0;0;0;469;866;0;1
Almeirim;PA;0;33614;33606;7729;4813;2916;19899;3264;0.6420;0.6590;0.8090;0.4970;-52.5768;-1.5273;18.7288;72954.7980;Tapajós;D;34142;Intermediário Remoto;70149;182934;138252;138524;529859;59452;589310;17707.0000;Administração, defesa, educação e saúde públicas e seguridade social;88490748;309;12;0;11;0;0;4;190;17;14;3;0;0;5;6;2;31;7;1;6;0;0;0;0;1;3;1;2;1098;1838;0;2
Almenara;MG;0;38775;38767;11571;9408;2163;31551;3262;0.6420;0.6360;0.8030;0.5180;-40.6977;-16.1806;197.3697;2294.4260;Vale Do Jequitinhonha;D;41642;Urbano;15946;50502;222897;157617;446962;27582;474544;11420.0000;Demais serviços;60421401;768;3;8;38;0;1;26;411;23;46;10;5;6;26;28;4;26;16;10;81;0;0;1;10;2;3;2;3;4937;6703;0;2
Almino Afonso;RN;0;4871;4871;1436;1035;401;3468;3611;0.6240;0.5780;0.7390;0.5680;-37.7631;-6.1574;243.2723;128.0380;0;0;4761;Rural Adjacente;1991;1185;8134;21649;32958;1051;34009;6975.0000;Administração, defesa, educação e saúde públicas e seguridade social;13032035;38;0;1;1;0;0;2;21;3;0;0;0;0;1;1;2;3;0;1;2;0;0;0;0;0;0;0;0;363;927;0;1
Almirante Tamandaré;PR;0;103204;103137;30414;29168;1246;87717;1953;0.6990;0.7060;0.8400;0.5750;-49.3003;-25.3134;956.9426;194.7440;Rotas Do Pinhão;D;117168;Urbano;31875;343640;523548;385217;1284281;112008;1396289;12234.0000;Demais serviços;129135424;1971;7;23;344;0;7;204;796;90;114;25;14;15;45;91;3;58;26;14;95;0;0;0;0;2;2;2;2;36568;11082;0;3
Almirante Tamandaré Do Sul;RS;0;2067;2067;731;305;426;837;790;0.7400;0.7320;0.8280;0.6690;-52.9137;-28.1137;601.9722;265.3270;0;0;1979;Rural Adjacente;76474;6058;34497;13933;130961;6873;137834;66107.0000;Agricultura, inclusive apoio à agricultura e a pós colheita;13042456;74;2;0;6;0;2;2;24;8;4;1;0;0;1;1;2;5;1;2;13;0;0;0;0;0;0;0;0;803;273;0;1
Aloândia;GO;0;2051;2051;801;695;106;1765;2004;0.6970;0.6940;0.8340;0.5850;-49.4823;-17.7249;607.5751;102.1600;0;0;2005;Rural Adjacente;11119;2127;12265;11384;36894;1852;38746;18673.0000;Administração, defesa, educação e saúde públicas e seguridade social;9391512;40;0;2;5;0;0;1;18;2;1;0;0;0;2;1;5;1;0;0;2;0;0;0;0;1;0;1;0;473;454;0;1
Alpercata;MG;0;7172;7166;2215;1737;478;5617;3187;0.6460;0.6290;0.8240;0.5210;-41.9891;-18.9868;192.6181;166.9720;0;0;7411;Rural Adjacente;5571;6607;28110;31098;71385;5228;76613;10219.0000;Administração, defesa, educação e saúde públicas e seguridade social;16616047;94;2;1;13;0;0;9;36;7;3;0;0;1;4;3;3;8;1;0;3;0;0;0;0;0;0;0;0;823;726;0;2
Alpestre;RS;0;8027;8027;2688;795;1893;2143;2649;0.6710;0.7000;0.7950;0.5430;-53.0374;-27.2488;447.8873;325.9790;Rota Águas E Pedras;D;6458;Rural Adjacente;49753;318002;38289;39441;445485;6044;451529;59940.0000;Eletricidade e gás, água, esgoto, atividades de gestão de resíduos e descontaminação;31608704;187;0;0;14;0;0;3;67;31;8;3;0;0;3;3;4;6;8;17;20;0;0;0;0;0;1;0;1;2231;1137;0;3
Alpinópolis;MG;0;18488;18478;5625;4564;1061;14884;1182;0.7250;0.7030;0.8620;0.6290;-46.3895;-20.8619;870.1480;454.7510;Nascentes Das Gerais;D;19745;Urbano;73622;24647;151497;71337;321103;26324;347427;17599.0000;Demais serviços;34302000;495;1;13;55;0;1;26;194;54;20;10;1;10;27;8;6;17;18;5;29;0;0;0;0;2;2;2;2;7244;2306;0;1
Alta Floresta;MT;0;49164;49124;15199;13203;1996;39877;1498;0.7140;0.7090;0.8170;0.6290;-56.0916;-9.8717;273.5354;8953.1910;Região Turística Amazônia Mato-Grossense;C;51615;Urbano;107068;147880;831874;289223;1376045;207738;1583783;31624.0000;Demais serviços;0;1505;48;6;149;1;3;60;700;63;84;25;7;16;88;68;4;56;47;13;67;0;0;3;95;3;2;3;2;11556;24680;0;2
Alta Floresta D'Oeste;RO;0;24392;24392;7276;4306;2970;13804;3283;0.6410;0.6570;0.7630;0.5260;-61.9998;-11.9355;337.7357;7067.0250;Vale Do Guaporé;D;23167;Intermediário Adjacente;166143;31270;114455;142728;454597;23186;477783;18732.0000;Administração, defesa, educação e saúde públicas e seguridade social;50218466;508;3;1;38;7;4;26;270;23;20;8;1;3;12;10;4;21;13;6;38;0;0;0;0;1;2;1;2;2464;9268;0;1
Altair;SP;0;3815;3815;1186;947;239;2998;2261;0.6870;0.6980;0.8000;0.5810;-49.0601;-20.5233;555.8684;313.0070;0;0;4134;Rural Adjacente;138183;8362;30466;19529;196539;3562;200101;48984.0000;Agricultura, inclusive apoio à agricultura e a pós colheita;18582016;124;46;0;3;0;0;1;23;8;8;0;0;0;1;5;3;3;6;0;17;0;0;0;0;1;0;1;0;1040;189;0;2
Altamira;PA;0;99075;99023;25619;22677;2942;79622;2792;0.6650;0.6620;0.8110;0.5480;-52.2144;-3.2057;104.7483;159533.3280;Xingu;B;113195;Urbano;257761;571389;1054252;364763;2248166;224607;2472773;22492.0000;Demais serviços;0;1768;10;13;130;1;3;100;935;46;103;18;5;14;67;85;5;74;79;13;67;0;0;1;41;5;6;3;4;11102;41071;0;3
Altamira Do Maranhão;MA;0;11063;11063;2632;1118;1515;3154;5215;0.5490;0.4860;0.7190;0.4730;-45.4647;-4.1623;55.1921;524.3730;0;0;8066;Rural Adjacente;16154;2119;11951;30369;60594;1600;62194;6091.0000;Administração, defesa, educação e saúde públicas e seguridade social;21254157;22;0;0;0;0;0;0;18;0;0;0;0;0;0;0;2;0;0;0;2;0;0;0;0;0;0;0;0;196;1008;0;1
Altamira Do Paraná;PR;0;4306;4306;1390;720;670;2131;2738;0.6670;0.6670;0.7800;0.5710;-52.7098;-24.8010;589.3238;386.9450;0;0;2209;Rural Adjacente;31424;2202;17309;17228;68162;3590;71752;22829.0000;Pecuária, inclusive apoio à pecuária;17743322;52;0;0;4;0;0;1;31;2;3;0;0;0;3;1;2;1;2;0;2;0;0;0;0;0;0;0;0;921;578;0;1
Altaneira;CE;0;6856;6856;2093;1567;526;4955;4103;0.6020;0.5470;0.7740;0.5150;-39.7458;-6.9975;659.0818;73.2950;0;0;7521;Rural Adjacente;2787;1723;11824;27134;43468;1744;45212;6099.0000;Administração, defesa, educação e saúde públicas e seguridade social;0;31;0;1;1;0;1;0;20;0;0;0;0;0;1;2;2;0;0;0;3;0;0;0;0;0;0;0;0;361;1142;0;2
Alterosa;MG;0;13717;13717;4560;3348;1212;9956;2732;0.6680;0.6570;0.8470;0.5360;-46.1453;-21.2559;847.0495;362.0100;Lago De Furnas;D;14414;Rural Adjacente;55240;11257;81637;54218;202351;10401;212752;14679.0000;Demais serviços;27510460;290;2;1;31;0;0;9;133;15;13;5;1;3;11;7;2;8;18;6;25;0;0;0;0;1;1;1;1;4388;2691;0;2
Altinho;PE;0;22353;22345;7065;4186;2879;12756;4200;0.5980;0.5590;0.7920;0.4820;-36.0597;-8.4896;456.2458;452.5230;Encantos Do Agreste;D;22959;Intermediário Adjacente;10569;5294;39295;78627;133785;6052;139837;6110.0000;Administração, defesa, educação e saúde públicas e seguridade social;36724408;199;2;1;15;0;0;3;68;2;1;4;1;1;5;3;5;26;4;7;51;0;0;0;0;0;1;0;1;1536;2138;0;2
Altinópolis;SP;0;15607;15601;4879;4301;578;13548;1046;0.7300;0.7260;0.8430;0.6350;-47.3733;-21.0246;904.2418;928.9560;Alta Mogiana;D;16164;Urbano;155578;22266;202475;63563;443882;18460;462342;28541.0000;Demais serviços;55755271;691;148;1;10;0;1;25;265;64;54;7;2;3;20;23;3;13;11;5;36;0;0;0;0;3;3;2;2;6215;914;0;1
Alto Alegre;SP;0;4102;4102;1375;1096;279;3234;1913;0.7000;0.6830;0.8170;0.6160;-50.1636;-21.5817;502.6642;318.5740;Tietê Vivo;E;4110;Rural Adjacente;39242;6209;30843;20864;97158;4984;102142;24530.0000;Agricultura, inclusive apoio à agricultura e a pós colheita;17790839;201;75;0;10;0;0;1;46;34;10;0;0;0;4;6;2;3;2;2;6;0;0;0;0;0;1;0;1;1321;464;0;3
Alto Alegre;RR;0;16448;16422;2169;1238;931;4766;5302;0.5420;0.5180;0.8130;0.3790;-61.3140;2.9938;121.7420;25753.4870;Roraima, A Savana Amazônica;D;15638;Rural Adjacente;66333;6433;25236;148481;246483;2272;248754;15496.0000;Administração, defesa, educação e saúde públicas e seguridade social;0;42;2;0;0;0;0;2;29;2;1;0;0;0;1;0;3;1;0;0;1;0;0;0;0;0;0;0;0;493;1226;0;1
Alto Alegre;RS;0;1848;1848;624;272;352;743;625;0.7470;0.7560;0.8590;0.6420;-52.9908;-28.7747;386.5016;115.3350;0;0;1663;Rural Adjacente;29096;2564;18328;12079;62067;3979;66046;36389.0000;Agricultura, inclusive apoio à agricultura e a pós colheita;11148026;82;3;1;12;0;0;1;37;1;2;0;0;0;1;0;3;5;1;1;14;0;0;0;0;0;0;0;0;711;207;0;1
Alto Alegre Do Maranhão;MA;0;24599;24599;5857;4621;1236;19366;5148;0.5540;0.5160;0.7440;0.4440;-44.4482;-4.2072;56.9665;383.3080;0;0;26839;Urbano;8155;16457;102562;70897;198070;18954;217024;8153.0000;Administração, defesa, educação e saúde públicas e seguridade social;43906688;99;1;0;3;0;0;4;54;1;3;0;1;0;0;0;2;19;1;1;9;0;0;0;0;0;0;0;0;642;3051;0;1
Alto Alegre Do Pindaré;MA;0;31057;31057;7282;2408;4874;9823;5081;0.5580;0.4650;0.7740;0.4830;-45.8421;-3.6652;17.5993;1876.0320;0;0;31894;Rural Adjacente;23365;7655;42382;92307;165709;9941;175650;5611.0000;Administração, defesa, educação e saúde públicas e seguridade social;20953227;46;1;0;0;0;0;1;22;0;5;0;0;0;3;2;1;2;3;1;5;0;0;0;0;1;0;1;0;420;2614;0;1
Alto Alegre Dos Parecis;RO;0;12816;12804;3706;1099;2607;3628;4368;0.5920;0.6030;0.7770;0.4430;-61.8531;-12.1318;396.5605;3958.2730;0;0;13227;Rural Adjacente;96143;10018;34152;80432;220744;9286;230030;16439.0000;Administração, defesa, educação e saúde públicas e seguridade social;29785703;125;1;0;9;1;0;1;95;1;0;0;0;0;1;3;3;3;2;0;5;0;0;0;0;0;0;0;0;909;3293;0;1
Alto Araguaia;MT;0;15644;15638;5165;4503;662;13571;1803;0.7040;0.7120;0.8020;0.6120;-53.2203;-17.3156;669.9530;5399.3260;Região Turística Domo De Araguainha;D;18703;Urbano;143972;322623;253719;117697;838012;59365;897376;50299.0000;Indústrias de transformação;81218357;470;7;3;15;1;5;21;219;50;21;7;1;0;17;15;5;19;35;3;26;0;0;0;0;0;2;0;2;2973;2785;0;1
Alto Bela Vista;SC;0;2005;2005;678;219;459;605;459;0.7550;0.7340;0.8820;0.6640;-51.9110;-27.4311;493.8552;103.9620;Vale Do Contestado;E;1948;Rural Adjacente;16140;5998;10326;14186;46651;2203;48854;24711.0000;Administração, defesa, educação e saúde públicas e seguridade social;14484924;56;0;0;8;0;0;2;23;7;1;1;0;0;1;2;2;0;1;2;6;0;0;0;0;0;0;0;0;908;297;0;1
Alto Boa Vista;MT;0;5247;5247;1162;966;196;3158;3090;0.6510;0.6130;0.8030;0.5610;-51.3793;-11.6767;248.2737;2240.4380;0;0;6659;Rural Remoto;31409;3659;26580;37863;99510;6951;106462;16877.0000;Administração, defesa, educação e saúde públicas e seguridade social;0;73;3;0;3;0;0;1;47;4;3;1;0;0;2;0;2;1;1;0;5;0;0;0;0;0;0;0;0;428;1334;0;1
Alto Caparaó;MG;0;5297;5291;1725;1325;400;3915;2878;0.6610;0.6660;0.8420;0.5140;-41.8731;-20.4444;958.7732;103.6900;Pico Da Bandeira;D;5799;Rural Adjacente;25514;3550;29387;24634;83085;4198;87283;15185.0000;Agricultura, inclusive apoio à agricultura e a pós colheita;14110136;116;1;0;3;0;0;2;70;1;11;2;0;2;0;2;2;2;3;0;15;0;0;0;0;0;0;0;0;1532;1124;0;1
Alto Do Rodrigues;RN;0;12305;12305;3591;2606;985;8841;2626;0.6720;0.6470;0.8000;0.5850;-36.7595;-5.2938;8.3533;191.3340;0;0;14326;Rural Adjacente;39702;186994;83281;83251;393228;32985;426213;30136.0000;Eletricidade e gás, água, esgoto, atividades de gestão de resíduos e descontaminação;0;186;18;0;5;0;1;9;101;3;10;1;0;0;3;14;2;7;4;2;6;0;0;2;67;0;2;0;2;1683;2486;0;1
Alto Feliz;RS;0;2917;2917;1001;301;700;813;927;0.7340;0.7400;0.8860;0.6030;-51.3158;-29.3901;317.3006;78.8520;Vale Do Caí;E;3020;Rural Adjacente;23451;19853;16742;16365;76412;6712;83125;27416.0000;Indústrias de transformação;13164097;102;0;0;28;0;0;2;32;8;5;0;2;0;0;3;4;4;1;2;11;0;0;0;0;0;0;0;0;1241;529;0;1
Alto Garças;MT;0;10350;10338;3426;3125;301;9342;1876;0.7010;0.7070;0.8350;0.5830;-53.5285;-16.9467;776.9120;3865.9710;Região Turística Domo De Araguainha;D;11868;Intermediário Remoto;272281;23813;181859;66874;544827;41570;586397;51515.0000;Agricultura, inclusive apoio à agricultura e a pós colheita;36632596;216;6;4;11;0;0;9;99;26;11;0;1;1;7;7;4;7;6;2;15;0;0;1;24;1;1;1;1;2095;1817;0;1
Alto Horizonte;GO;0;4505;4505;1453;1241;212;3858;1348;0.7190;0.7090;0.8410;0.6240;-49.3327;-14.1992;394.7204;503.7640;0;0;6218;Rural Adjacente;11393;238039;86914;38621;374967;17228;392194;69674.0000;Indústrias extrativas;0;118;0;1;8;0;3;13;48;6;9;2;0;0;6;12;2;0;5;1;2;0;0;0;0;0;0;0;0;1036;844;0;1
Alto Jequitibá;MG;0;8318;8318;2736;1510;1226;4719;2914;0.6600;0.6600;0.7870;0.5540;-41.9672;-20.4229;672.9480;152.2720;Pico Da Bandeira;D;8333;Rural Adjacente;25954;5415;34825;32413;98608;5306;103913;12189.0000;Administração, defesa, educação e saúde públicas e seguridade social;14549455;169;1;0;13;0;0;5;80;5;10;0;1;0;5;4;3;12;3;2;25;0;0;0;0;1;0;1;0;2479;1709;0;1
Alto Longá;PI;0;13646;13646;3965;2024;1941;6713;4516;0.5850;0.5670;0.7510;0.4700;-42.2103;-5.2510;139.7628;1737.8360;0;0;14268;Rural Adjacente;5133;3808;19997;54157;83095;3623;86718;6177.0000;Administração, defesa, educação e saúde públicas e seguridade social;27589240;131;0;0;5;0;0;1;74;1;2;0;1;0;2;4;2;19;4;0;16;0;0;0;0;0;0;0;0;446;1969;0;1
Alto Paraguai;MT;0;10066;10066;3094;1940;1154;6372;3355;0.6380;0.6120;0.7840;0.5410;-56.4944;-14.5147;238.0000;1844.8170;0;0;11238;Rural Remoto;22879;3169;22620;55332;103999;4796;108795;10061.0000;Administração, defesa, educação e saúde públicas e seguridade social;0;58;2;1;1;0;0;3;36;0;0;0;0;0;1;2;2;5;2;0;3;0;0;0;0;0;1;0;1;651;1164;0;2
Alto Paraná;PR;0;13663;13657;4311;3601;710;11190;2038;0.6960;0.6790;0.8460;0.5870;-52.3217;-23.1271;522.8612;407.7190;0;0;14679;Rural Adjacente;80269;36343;81286;57630;255528;14342;269870;18477.0000;Demais serviços;30034933;420;25;5;70;0;1;15;185;27;11;6;2;1;2;15;3;11;7;6;28;0;0;0;0;1;1;1;1;4197;2135;0;2
Alto Paraíso;RO;0;17135;17130;5083;2434;2649;3299;3590;0.6250;0.6640;0.8040;0.4570;-63.3176;-9.7167;128.0001;2651.8220;Vale Do Jamari;D;20999;Rural Adjacente;74247;22605;64270;111134;272257;14828;287085;13957.0000;Administração, defesa, educação e saúde públicas e seguridade social;33731475;256;3;1;27;0;1;9;138;13;10;0;0;1;7;7;2;8;4;0;25;0;0;1;26;1;2;1;2;1641;4669;0;1
Alto Paraíso;PR;0;3206;3199;1101;596;505;1761;2487;0.6780;0.6770;0.8290;0.5560;-53.7329;-23.5081;392.8838;967.7720;Corredores Das Águas;E;2799;Rural Adjacente;38949;3870;15889;21291;79999;3355;83354;27446.0000;Pecuária, inclusive apoio à pecuária;20312589;80;4;2;6;0;0;3;30;2;2;1;0;0;3;2;2;2;3;2;16;0;0;0;0;0;0;0;0;897;471;0;1
Alto Paraíso De Goiás;GO;0;6885;6834;2125;1637;488;5142;1516;0.7130;0.7230;0.8190;0.6110;-47.5191;-14.1362;1232.6064;2593.9050;Região Turística Da Chapada Dos Veadeiros;C;7558;Rural Adjacente;48494;9572;63801;28964;150830;9313;160143;21484.0000;Demais serviços;0;287;5;0;7;0;2;8;84;9;82;8;0;5;14;16;3;10;3;5;26;0;0;3;96;1;1;1;1;1157;638;0;2
Alto Parnaíba;MA;0;10766;10761;2657;1769;888;6963;3441;0.6330;0.6830;0.7850;0.4740;-45.9273;-9.1084;275.6981;11132.1760;0;0;11168;Rural Remoto;83009;10934;47222;36844;178008;6850;184858;16837.0000;Agricultura, inclusive apoio à agricultura e a pós colheita;0;112;5;1;3;0;0;1;87;4;2;0;0;0;1;1;2;0;3;0;2;0;0;0;0;0;1;0;1;141;1620;0;2
Alto Piquiri;PR;0;10179;10179;3252;2706;546;8252;2529;0.6760;0.6690;0.7980;0.5780;-53.4412;-24.0190;412.7792;447.6660;Corredores Das Águas;D;9896;Rural Adjacente;80719;14582;96020;45079;236400;16598;252998;24675.0000;Agricultura, inclusive apoio à agricultura e a pós colheita;25950821;166;0;0;23;0;1;6;87;7;6;2;0;0;5;1;2;6;6;1;13;0;0;0;0;1;1;1;1;2825;1510;0;4
Alto Rio Doce;MG;0;12159;12159;3608;1590;2018;4991;3706;0.6200;0.5950;0.8280;0.4830;-43.4189;-21.0221;813.8485;518.0530;0;0;11146;Rural Adjacente;37946;12783;35849;43554;130131;3804;133935;11358.0000;Administração, defesa, educação e saúde públicas e seguridade social;18872188;179;0;0;15;0;0;6;107;10;5;2;0;0;10;5;2;3;4;2;8;0;0;0;0;1;0;1;0;1962;2327;0;4
Alto Rio Novo;ES;0;7317;7312;2302;1386;916;4256;2811;0.6640;0.6340;0.8150;0.5670;-41.0187;-19.0575;537.9988;227.6170;0;0;7798;Rural Adjacente;13514;5298;25868;37014;81694;3757;85451;10710.0000;Administração, defesa, educação e saúde públicas e seguridade social;21524164;196;13;2;12;0;0;8;98;10;4;1;0;0;4;3;3;3;5;2;28;0;0;0;0;0;1;0;1;1285;1507;0;3
Alto Santo;CE;0;16359;16359;4609;2340;2269;8036;4140;0.6010;0.5630;0.7740;0.4990;-38.2728;-5.5221;69.9997;1338.2050;0;0;17096;Rural Adjacente;30809;7570;36884;51599;126862;6689;133551;7890.0000;Administração, defesa, educação e saúde públicas e seguridade social;34764298;213;10;0;43;0;0;3;116;5;4;0;0;0;5;4;5;2;1;1;14;0;0;0;0;1;0;1;0;775;3073;0;1
Alto Taquari;MT;0;8072;8066;2425;2187;238;7234;1771;0.7050;0.7360;0.8330;0.5710;-53.2820;-17.8347;874.2165;1440.3990;Região Turística Domo De Araguainha;D;10557;Intermediário Remoto;454831;220894;231849;67837;975411;63109;1038520;104238.0000;Agricultura, inclusive apoio à agricultura e a pós colheita;41892856;202;15;1;10;1;0;3;97;18;16;5;0;2;8;4;2;5;7;2;6;0;0;1;66;1;2;1;2;1647;1177;0;1
Altos;PI;0;38822;38822;10392;7448;2944;27332;3822;0.6140;0.5900;0.7670;0.5120;-42.4609;-5.0365;190.4959;957.6540;Polo Teresina;D;40440;Urbano;7804;52495;124169;134565;319032;27429;346462;8706.0000;Administração, defesa, educação e saúde públicas e seguridade social;61108622;398;3;0;16;0;1;31;225;14;12;4;0;0;4;11;3;11;10;4;49;0;0;0;0;1;2;1;2;3273;9447;0;1
Altônia;PR;0;20516;20471;6676;4968;1708;14996;1275;0.7210;0.6900;0.8480;0.6410;-53.8920;-23.8709;373.6890;661.5600;Corredores Das Águas;D;21933;Intermediário Adjacente;66797;18141;140549;87782;313268;21293;334561;15300.0000;Demais serviços;0;528;7;1;131;0;4;5;221;16;19;8;2;5;13;13;3;21;20;1;38;0;0;0;0;2;2;2;2;6470;4476;0;3
Alumínio;SP;0;16839;16831;4990;4181;809;14076;284;0.7660;0.7290;0.8410;0.7320;-47.2591;-23.5334;782.1651;83.6600;0;0;18484;Urbano;1818;860099;360526;86380;1308823;499528;1808351;99393.0000;Eletricidade e gás, água, esgoto, atividades de gestão de resíduos e descontaminação;0;271;2;0;18;0;0;16;118;16;31;2;2;1;7;13;2;17;3;5;18;0;0;0;0;2;0;2;0;5929;1169;0;1
Alvarenga;MG;0;4444;4436;1405;694;711;2109;4351;0.5920;0.5890;0.7980;0.4410;-41.7264;-19.4145;393.1050;278.1730;Trilhas Do Rio Doce;E;3973;Rural Adjacente;7622;1652;9204;18109;36588;997;37585;8854.0000;Administração, defesa, educação e saúde públicas e seguridade social;0;36;0;0;3;0;0;0;18;1;0;0;0;0;1;1;2;0;0;0;10;0;0;0;0;0;0;0;0;692;1066;0;1
Alvarães;AM;0;14088;14073;2335;1367;968;7848;5417;0.5270;0.4990;0.7780;0.3770;-64.8135;-3.2166;46.1160;5923.4610;0;0;15860;Rural Remoto;62449;5480;20108;58157;146193;1753;147946;9406.0000;Administração, defesa, educação e saúde públicas e seguridade social;25321352;37;2;0;0;0;0;0;26;1;0;0;0;0;0;2;2;2;0;0;2;0;0;0;0;0;0;0;0;16;571;0;1
Alvinlândia;SP;0;3000;3000;912;824;88;2688;1247;0.7220;0.7210;0.7910;0.6590;-49.7630;-22.4450;666.5149;84.8790;0;0;3206;Rural Adjacente;10164;3539;16462;16021;46187;982;47169;14824.0000;Administração, defesa, educação e saúde públicas e seguridade social;12329568;94;43;0;3;0;0;4;28;1;3;1;0;0;3;2;2;2;0;0;2;0;0;0;0;0;1;0;1;894;215;0;1
Alvinópolis;MG;0;15261;15261;4647;3515;1132;11344;2533;0.6760;0.6510;0.8220;0.5770;-43.0661;-20.1148;572.6477;599.4430;Serras De Minas;D;15239;Rural Adjacente;21632;65500;83871;55175;226178;42578;268755;17218.0000;Demais serviços;22401440;307;6;6;36;0;1;8;151;11;15;4;0;0;9;11;3;8;11;7;20;0;0;0;0;1;1;1;1;2775;2142;0;4
Alvorada;TO;0;8374;8374;2605;2398;207;7699;1679;0.7080;0.6770;0.8430;0.6230;-49.1268;-12.4788;302.2473;1212.1670;0;0;8427;Intermediário Adjacente;47184;49052;89807;45666;231709;39270;270979;31783.0000;Demais serviços;23016524;267;7;1;11;0;0;14;137;24;12;0;0;3;17;10;5;2;9;4;11;0;0;0;0;0;1;0;1;1410;1652;0;1
Alvorada;RS;0;195673;195483;60221;60221;0;194483;1952;0.6990;0.6940;0.8740;0.5640;-51.0777;-29.9975;13.4407;71.6020;0;0;209213;Urbano;1379;450981;1108759;749843;2310961;212179;2523140;12166.0000;Demais serviços;221330890;2994;3;2;382;0;9;309;1324;180;152;46;14;34;82;172;2;97;37;32;117;0;0;0;0;3;5;3;3;58183;17062;0;1
Alvorada D'Oeste;RO;0;16853;16841;5051;2702;2349;8763;3242;0.6430;0.6540;0.7630;0.5340;-62.2773;-11.3441;182.4001;3029.1890;0;0;14722;Rural Adjacente;81681;11285;49673;91637;234276;9284;243560;14410.0000;Administração, defesa, educação e saúde públicas e seguridade social;29322835;205;3;2;12;0;1;5;116;15;10;4;0;0;7;3;4;3;4;2;14;0;0;0;0;0;1;0;1;1513;5291;0;1
Alvorada De Minas;MG;0;3546;3546;966;412;554;1441;4802;0.5720;0.5700;0.7940;0.4140;-43.3661;-18.7336;671.9440;374.0080;Diamantes;E;3606;Rural Adjacente;6383;1934;11660;23565;43543;3680;47223;12871.0000;Administração, defesa, educação e saúde públicas e seguridade social;24425786;54;1;0;0;0;0;1;27;5;1;0;0;0;1;2;2;3;0;0;11;0;0;0;0;0;0;0;0;542;456;0;2
Alvorada Do Gurguéia;PI;0;5050;5050;1289;487;802;1843;4681;0.5780;0.5200;0.7490;0.4960;-43.8631;-8.4440;268.7833;2131.9210;Polo Das Nascentes;E;5392;Rural Remoto;13351;2011;10644;22554;48561;3720;52281;9859.0000;Administração, defesa, educação e saúde públicas e seguridade social;0;26;3;0;0;0;1;1;13;0;0;0;0;0;0;1;3;0;0;0;4;0;0;0;0;0;0;0;0;189;580;0;1
Alvorada Do Norte;GO;0;8084;8084;2423;2049;374;6762;2898;0.6600;0.6400;0.8190;0.5480;-46.5156;-14.4828;512.1333;1259.3660;0;0;8614;Urbano;15458;7625;48809;33479;105371;7280;112651;13102.0000;Demais serviços;24655441;193;0;1;5;0;1;8;108;9;10;0;1;1;6;6;6;10;10;1;10;0;0;0;0;2;1;2;1;1898;1112;0;1
Alvorada Do Sul;PR;0;10283;10270;3143;2293;850;7305;1672;0.7080;0.6950;0.8260;0.6170;-51.2292;-22.7804;365.0581;424.2500;Norte Do Paraná;D;11306;Rural Adjacente;72662;11846;94511;50440;229459;14993;244452;21928.0000;Demais serviços;31346258;241;5;0;21;0;2;13;108;27;12;3;2;4;10;9;4;5;7;4;5;0;0;1;20;1;1;1;1;2846;1135;0;2
Além Paraíba;MG;0;34349;34349;11190;10495;695;31942;1147;0.7260;0.7130;0.8570;0.6260;-42.6959;-21.8768;149.0276;510.2500;Serras E Cachoeiras;D;35321;Urbano;8789;164690;434466;132796;740742;79639;820380;22919.0000;Demais serviços;67637376;2938;4;7;46;0;3;20;1677;206;68;463;7;6;47;141;2;41;56;17;127;0;0;0;0;3;2;2;2;14176;5528;0;4
Amajari;RR;0;9327;9327;1022;309;713;1218;5551;0.4840;0.4370;0.8150;0.3190;-61.4206;3.6521;107.7174;28472.3100;O Extremo Norte Do Brasil;D;12394;Rural Adjacente;32649;1411;9413;94812;138285;887;139171;12332.0000;Administração, defesa, educação e saúde públicas e seguridade social;0;17;0;0;0;0;0;1;9;0;1;0;1;0;0;1;2;1;0;0;1;0;0;1;33;0;0;0;0;192;356;0;1
Amambai;MS;0;34730;34668;9056;7341;1715;22526;2606;0.6730;0.6830;0.8180;0.5460;-55.2438;-23.1006;481.3404;4202.3240;0;0;38958;Intermediário Adjacente;223198;85748;287625;201796;798367;79215;877582;23076.0000;Demais serviços;0;646;13;4;51;0;3;15;326;36;33;9;2;3;28;14;5;30;20;9;45;0;0;0;0;1;2;1;2;8410;5764;0;1
Amaporã;PR;0;5443;5443;1646;1313;333;4324;2699;0.6690;0.6440;0.7850;0.5910;-52.7868;-23.0974;407.8550;384.7350;Corredores Das Águas;E;6181;Rural Adjacente;34138;4667;30360;26026;95190;7569;102760;17073.0000;Administração, defesa, educação e saúde públicas e seguridade social;0;111;3;1;12;0;0;2;58;7;4;1;0;0;0;1;3;5;1;1;12;0;0;0;0;0;0;0;0;1262;741;0;1
Amapá;AP;0;8069;8069;1784;1528;256;6353;3255;0.6420;0.6310;0.7900;0.5320;-50.7932;2.0539;11.9477;8454.8470;Meio Do Mundo;D;9029;Intermediário Remoto;22310;3567;41756;69044;136677;6880;143556;16520.0000;Administração, defesa, educação e saúde públicas e seguridade social;0;73;0;0;1;0;0;1;38;1;4;0;0;1;3;0;3;13;3;1;4;0;0;0;0;0;1;0;1;231;331;0;2
Amapá Do Maranhão;MA;0;6431;6431;1508;1143;365;4821;5458;0.5200;0.5030;0.6880;0.4060;-46.0092;-1.6809;59.4369;502.4020;0;0;6918;Rural Adjacente;8664;1705;15332;20463;46163;2489;48652;7109.0000;Administração, defesa, educação e saúde públicas e seguridade social;0;26;0;0;0;0;0;0;19;0;0;0;0;0;0;1;2;3;0;0;1;0;0;0;0;0;0;0;0;124;529;0;1
Amaraji;PE;0;21939;21932;6189;4648;1541;15319;4645;0.5800;0.5750;0.7480;0.4540;-35.4508;-8.3785;291.6231;234.9560;0;0;22788;Urbano;34525;6424;51350;86134;178433;8705;187138;8249.0000;Administração, defesa, educação e saúde públicas e seguridade social;39476880;148;4;0;9;0;1;0;98;5;7;2;0;0;4;5;4;2;1;0;6;0;0;0;0;0;1;0;1;1224;1604;0;1
Amaral Ferrador;RS;0;6353;6350;2117;658;1459;1866;3620;0.6240;0.6640;0.8020;0.4570;-52.2513;-30.8751;47.8405;505.9830;0;0;6974;Rural Adjacente;54004;3050;19761;30801;107616;2632;110248;16172.0000;Administração, defesa, educação e saúde públicas e seguridade social;15438525;101;1;1;2;0;0;2;52;13;3;4;1;0;2;3;2;3;1;1;10;0;0;0;0;0;1;0;1;1698;1091;0;1
Amaralina;GO;0;3434;3434;1091;377;714;1101;3940;0.6090;0.5690;0.8130;0.4890;-49.2954;-13.9255;493.8622;1343.2370;0;0;3778;Rural Adjacente;24772;1553;7090;15980;49395;1649;51044;13710.0000;Pecuária, inclusive apoio à pecuária;13067841;31;1;0;1;0;0;2;18;3;0;0;0;0;1;1;2;1;1;0;0;0;0;0;0;0;0;0;0;245;290;0;1
Amarante;PI;0;17135;17135;4870;2587;2283;8738;4209;0.5980;0.5740;0.7500;0.4970;-42.8537;-6.2466;99.8146;1155.2050;Polo Histórico Cultural;D;17592;Rural Adjacente;7963;5445;40821;62626;116854;7806;124661;7199.0000;Administração, defesa, educação e saúde públicas e seguridade social;0;192;1;0;5;0;1;3;130;6;9;5;0;0;3;7;3;5;7;2;5;0;0;0;0;1;1;1;1;786;3497;0;1
Amarante Do Maranhão;MA;0;37932;37932;8326;3852;4473;14910;5143;0.5550;0.5410;0.7160;0.4410;-46.7506;-5.5577;250.7630;7438.2170;0;0;41136;Rural Adjacente;77972;9464;70195;118114;275744;9462;285206;6998.0000;Administração, defesa, educação e saúde públicas e seguridade social;0;129;2;0;2;0;2;1;95;0;0;0;0;0;4;1;2;4;3;2;11;0;0;0;0;1;0;1;0;553;6527;0;1
Amargosa;BA;0;34351;34337;10418;7720;2698;24819;3596;0.6250;0.6160;0.8070;0.4920;-39.5981;-13.0345;393.8435;431.6730;Caminhos Do Jiquiriçá;C;37031;Intermediário Adjacente;32277;29233;148385;106837;316732;21555;338286;8893.0000;Demais serviços;0;537;4;0;39;0;0;17;316;6;23;3;2;2;17;22;2;16;24;6;38;0;0;0;0;1;2;1;2;4689;4707;0;4
Amaturá;AM;0;9467;9432;1429;952;477;4868;5057;0.5600;0.4990;0.7730;0.4550;-68.2096;-3.3668;73.4477;4754.1090;Polo Alto Solimões;E;11332;Rural Remoto;6291;2064;11805;44684;64845;1387;66232;5995.0000;Administração, defesa, educação e saúde públicas e seguridade social;20330168;14;0;0;0;0;0;0;10;0;0;0;0;0;0;0;2;1;0;0;1;0;0;0;0;0;0;0;0;5;273;0;1
Americana;SP;0;210638;210056;67721;67445;276;208976;19;0.8110;0.8000;0.8760;0.7600;-47.3304;-22.7409;550.3658;133.9120;Bem Viver;C;237112;Urbano;10819;2446315;5466272;920895;8844301;1443615;10287915;44417.0000;Demais serviços;541958027;10786;22;1;1463;0;36;534;3996;337;692;270;195;352;666;1079;5;306;306;146;380;0;0;3;298;25;13;4;2;113213;33482;0;5
Americano Do Brasil;GO;0;5508;5501;1925;1649;276;5002;1909;0.7000;0.6690;0.8130;0.6310;-49.9836;-16.2551;891.3490;133.5630;0;0;6057;Intermediário Adjacente;31180;5189;19427;22839;78636;3182;81818;13707.0000;Administração, defesa, educação e saúde públicas e seguridade social;17455712;150;15;1;9;0;0;4;55;29;2;0;2;0;3;5;6;5;8;2;4;0;0;0;0;0;0;0;0;1230;990;0;1
Ametista Do Sul;RS;0;7323;7323;2401;1297;1104;3798;2407;0.6820;0.6970;0.8090;0.5620;-53.1922;-27.3564;465.8201;93.7040;Rota Águas E Pedras;D;7416;Rural Adjacente;13408;14548;26003;32633;86592;5823;92415;12203.0000;Administração, defesa, educação e saúde públicas e seguridade social;17687246;246;1;0;53;0;0;8;128;15;12;2;2;0;2;6;2;2;6;2;5;0;0;0;0;0;1;0;1;2423;1563;0;2
Amontada;CE;0;39232;39189;9807;4252;5555;15906;4018;0.6060;0.5030;0.7610;0.5820;-39.8288;-3.3649;43.4163;1178.1620;Litoral Oeste;C;43131;Rural Adjacente;30593;145731;82491;141345;400160;21416;421576;9918.0000;Administração, defesa, educação e saúde públicas e seguridade social;84717861;208;6;1;6;1;1;6;130;0;21;1;1;1;1;4;3;9;1;0;15;0;0;1;26;1;1;1;1;1681;5839;0;0
Amorinópolis;GO;0;3609;3609;1312;806;506;2161;2433;0.6810;0.6720;0.8130;0.5790;-51.0972;-16.6179;638.7982;408.5250;0;0;3185;Rural Adjacente;23761;1964;11277;15610;52612;2070;54682;15864.0000;Pecuária, inclusive apoio à pecuária;0;46;1;0;2;0;0;0;26;8;0;1;0;0;1;1;2;2;0;0;2;0;0;0;0;0;0;0;0;609;613;0;1
Amparo;SP;0;65829;65717;20542;16499;4043;52531;93;0.7850;0.7800;0.8710;0.7110;-46.7651;-22.6994;673.4298;445.3230;Águas E Flores Paulista;C;71700;Urbano;111433;1040281;1409813;278935;2840462;603309;3443771;48681.0000;Demais serviços;203473715;2629;465;6;283;0;3;93;821;164;176;40;23;31;98;124;3;57;120;40;82;0;0;3;173;5;2;4;2;29581;15267;0;4
Amparo;PB;0;2088;2088;636;340;296;1062;4008;0.6060;0.5370;0.7520;0.5510;-37.0648;-7.5672;622.1260;121.9840;0;0;2227;Rural Adjacente;1276;1169;4315;14575;21335;643;21979;9860.0000;Administração, defesa, educação e saúde públicas e seguridade social;0;16;0;0;1;0;0;1;6;0;0;0;0;0;1;0;2;2;0;0;3;0;0;0;0;0;0;0;0;131;153;0;1
Amparo De São Francisco;SE;0;2275;2275;686;554;132;1834;3890;0.6110;0.5690;0.7280;0.5500;-36.9275;-10.1340;23.4056;35.3300;Polo Do Velho Chico;E;2368;Rural Adjacente;1417;1960;5057;16199;24633;1310;25943;10891.0000;Administração, defesa, educação e saúde públicas e seguridade social;0;31;0;0;2;0;0;1;15;0;0;0;0;0;0;2;4;0;1;1;5;0;0;0;0;0;0;0;0;132;276;0;1
Amparo Do Serra;MG;0;5053;5053;1467;766;701;2623;3284;0.6410;0.6160;0.8110;0.5280;-42.8072;-20.5101;583.0962;136.1860;0;0;4751;Rural Adjacente;9322;2361;12728;20583;44994;1816;46810;9462.0000;Administração, defesa, educação e saúde públicas e seguridade social;12866549;46;0;0;5;0;0;1;26;5;1;1;0;0;1;1;2;2;1;0;0;0;0;0;0;0;0;0;0;0;0;0;2
Ampére;PR;0;17308;17299;5505;4230;1275;12190;1638;0.7090;0.6990;0.8240;0.6200;-53.4733;-25.9171;527.4612;298.3490;Vales Do Iguaçu;D;18989;Urbano;78581;127265;188209;74792;468847;57313;526160;28077.0000;Demais serviços;42327496;666;0;1;120;0;0;21;262;70;28;12;4;19;24;11;2;26;29;7;30;0;0;0;0;2;2;2;2;6771;3529;0;1
Amélia Rodrigues;BA;0;25190;25190;7169;5663;1506;19897;2768;0.6660;0.6090;0.8100;0.6000;-38.7556;-12.4002;203.6105;173.4840;0;0;25224;Intermediário Adjacente;26986;28035;116439;84612;256073;24327;280400;10612.0000;Demais serviços;0;250;5;0;24;0;0;14;114;24;14;3;0;2;5;8;2;8;7;4;16;0;0;1;279;0;2;0;2;2540;2331;0;3
América Dourada;BA;0;15961;15961;4343;2919;1424;10815;5036;0.5610;0.5060;0.7510;0.4640;-41.4372;-11.4496;688.0690;822.3730;0;0;16097;Rural Adjacente;29851;8038;28119;49549;115557;5202;120759;7196.0000;Administração, defesa, educação e saúde públicas e seguridade social;38520382;80;3;0;0;0;1;1;47;1;0;0;0;0;0;1;2;19;1;1;3;0;0;0;0;0;1;0;1;968;940;0;5
Américo Brasiliense;SP;0;34478;34439;10290;10215;75;34097;544;0.7510;0.7090;0.8520;0.7010;-48.1066;-21.7300;730.2162;122.7850;Centro Paulista;E;39962;Urbano;19867;278040;326975;133081;757963;79678;837641;21644.0000;Demais serviços;84689608;830;7;0;93;1;1;97;337;75;72;12;5;1;17;34;2;32;13;8;23;0;0;0;0;3;2;3;2;13728;5748;0;1
Américo De Campos;SP;0;5706;5701;1976;1672;304;4782;663;0.7450;0.7150;0.8170;0.7080;-49.7270;-20.2964;449.1606;252.8760;0;0;5956;Rural Adjacente;35522;3901;33320;23943;96686;2499;99184;16656.0000;Agricultura, inclusive apoio à agricultura e a pós colheita;18743451;180;24;0;17;0;0;6;76;13;5;1;0;1;6;1;2;5;4;6;13;0;0;0;0;2;0;2;0;2224;668;0;1
Anadia;AL;0;17424;17424;4670;2513;2157;10654;4887;0.5680;0.5460;0.7560;0.4440;-36.3008;-9.6841;133.2471;186.1340;0;0;17564;Intermediário Adjacente;38253;3636;27652;68734;138275;2217;140492;7879.0000;Administração, defesa, educação e saúde públicas e seguridade social;0;124;2;0;3;0;0;0;80;14;3;1;0;0;1;7;2;3;1;1;6;0;0;0;0;0;0;0;0;991;1278;0;1
Anagé;BA;0;25516;25516;7252;1486;5766;4904;5330;0.5400;0.5490;0.7710;0.3710;-41.1271;-14.6113;390.0491;1336.3610;0;0;18194;Rural Adjacente;14679;8533;55583;74085;152880;7496;160376;8090.0000;Administração, defesa, educação e saúde públicas e seguridade social;0;238;0;3;8;0;0;8;100;9;8;2;0;2;2;5;4;8;5;3;71;0;0;0;0;1;1;1;1;1169;1069;0;2
Anahy;PR;0;2874;2874;938;681;257;2108;2066;0.6950;0.6710;0.8440;0.5930;-53.1333;-24.6476;485.1800;102.6470;0;0;2816;Rural Adjacente;39279;2973;24871;15181;82304;5412;87716;30164.0000;Agricultura, inclusive apoio à agricultura e a pós colheita;14069816;54;0;0;7;0;0;0;29;1;2;0;0;0;2;0;2;2;2;0;7;0;0;0;0;0;0;0;0;818;589;0;1
Anajatuba;MA;0;25291;25291;6503;1866;4637;7005;4624;0.5810;0.5230;0.7620;0.4920;-44.6207;-3.2576;6.9060;942.5680;0;0;26614;Rural Adjacente;37669;7007;41727;81361;167763;5954;173717;6404.0000;Administração, defesa, educação e saúde públicas e seguridade social;49404250;80;1;0;2;0;0;2;57;1;2;1;0;0;0;2;1;3;1;0;7;0;0;0;0;1;0;1;0;619;2640;0;1
Anajás;PA;0;24759;24759;4856;1934;2922;9443;5550;0.4840;0.5060;0.7740;0.2900;-49.9450;-0.9845;5.0011;6913.6400;Marajó;D;28859;Rural Remoto;40211;11240;29413;100027;180891;8333;189225;6755.0000;Administração, defesa, educação e saúde públicas e seguridade social;0;62;0;0;4;0;0;0;47;2;1;0;0;0;1;1;2;0;1;0;3;0;0;0;0;0;1;0;1;5;278;0;1
Analândia;SP;0;4293;4288;1385;1113;272;3376;475;0.7540;0.7450;0.8610;0.6680;-47.6608;-22.1288;659.5578;325.9530;Serra Do Itaqueri;D;4933;Rural Adjacente;28543;39254;44727;25948;138472;4104;142577;29772.0000;Demais serviços;22279144;162;36;3;8;0;0;6;39;26;20;3;0;4;6;4;2;0;2;0;3;0;0;0;0;1;0;1;0;1535;332;0;1
Anamã;AM;0;10214;10214;1807;809;998;4149;4306;0.5940;0.5370;0.7410;0.5260;-61.4059;-3.5764;21.6137;2446.1210;0;0;13269;Rural Remoto;32313;3166;13847;44086;93411;1906;95318;7533.0000;Administração, defesa, educação e saúde públicas e seguridade social;30129965;19;0;0;0;0;0;0;13;1;1;0;0;0;0;0;2;0;0;0;2;0;0;0;0;0;0;0;0;5;145;0;1
Ananindeua;PA;0;471980;471506;125942;125625;317;461048;1366;0.7180;0.6840;0.8210;0.6580;-48.3721;-1.3687;26.5644;190.4510;Belém;C;525566;Urbano;10569;1042975;3389222;1485518;5928283;782607;6710890;13137.0000;Demais serviços;163796082;4051;15;2;357;0;18;296;1919;210;151;50;27;28;145;293;5;204;126;35;170;0;0;3;313;8;10;3;4;64865;50367;0;4
Ananás;TO;0;9865;9848;2644;2191;453;8101;2656;0.6710;0.6210;0.8040;0.6050;-48.0798;-6.3628;192.7155;1576.9730;Bico Do Papagaio;D;9607;Intermediário Adjacente;18295;2414;29059;53728;103496;5371;108866;11111.0000;Administração, defesa, educação e saúde públicas e seguridade social;0;141;4;0;6;0;2;3;75;1;3;0;0;0;13;0;5;5;4;1;19;0;0;0;0;0;0;0;0;635;1829;0;1
Anapu;PA;0;20543;20543;5036;2438;2598;9803;5235;0.5480;0.5630;0.7880;0.3710;-51.2016;-3.4761;56.3087;11895.2960;Xingu;D;27161;Rural Remoto;94403;18252;74664;94087;281405;28197;309602;11785.0000;Administração, defesa, educação e saúde públicas e seguridade social;63452420;210;2;1;19;0;0;5;126;3;9;1;0;0;2;4;2;23;1;1;11;0;0;0;0;1;1;1;1;494;2893;0;1
Anapurus;MA;0;13939;13939;3333;1747;1586;7158;4620;0.5810;0.5110;0.7640;0.5020;-43.1058;-3.6670;94.5036;608.9030;0;0;15566;Rural Adjacente;17757;13201;44423;47778;123159;10418;133577;8618.0000;Administração, defesa, educação e saúde públicas e seguridade social;0;78;9;0;4;0;0;4;46;1;1;0;0;0;3;1;2;1;0;1;5;0;0;0;0;0;0;0;0;425;1253;0;1
Anastácio;MS;0;23835;23767;7382;6019;1363;19029;2828;0.6630;0.6630;0.7890;0.5570;-55.8046;-20.4824;155.3547;2946.3170;0;0;25128;Urbano;72693;64829;120916;122654;381091;31287;412378;16593.0000;Administração, defesa, educação e saúde públicas e seguridade social;51507521;314;10;5;23;0;1;6;168;19;16;5;1;0;5;7;2;8;7;10;21;0;0;1;34;1;1;1;1;4390;5638;0;1
Anaurilândia;MS;0;8493;8493;2753;1447;1306;4303;2682;0.6700;0.6760;0.8260;0.5380;-52.7182;-22.1827;312.6036;3395.4370;0;0;8993;Rural Adjacente;86686;19705;40946;54401;201738;11602;213340;24011.0000;Pecuária, inclusive apoio à pecuária;0;110;2;0;10;0;0;4;54;3;3;0;1;1;8;3;2;2;8;2;7;0;0;0;0;0;1;0;1;1908;747;0;2
Anchieta;ES;0;23902;23876;7347;5634;1713;17595;1040;0.7300;0.6960;0.8560;0.6540;-40.6477;-20.8056;5.7136;409.6910;Costa E Da Imigração;B;28736;Rural Adjacente;29505;138812;254395;231028;653740;59713;713453;25398.0000;Administração, defesa, educação e saúde públicas e seguridade social;220135586;699;4;0;47;0;2;66;254;25;104;5;7;6;25;49;5;17;26;13;44;0;0;9;556;0;3;0;3;5981;3489;0;7
Anchieta;SC;0;6380;6380;1981;869;1112;2580;1963;0.6990;0.7030;0.8000;0.6080;-53.3333;-26.5357;700.5274;231.7000;Caminhos Da Fronteira;D;5721;Rural Adjacente;50854;14963;37481;27525;130824;7616;138440;23429.0000;Pecuária, inclusive apoio à pecuária;17209606;281;4;1;32;1;0;10;87;51;12;1;0;2;8;1;2;16;5;7;41;0;0;0;0;0;1;0;1;2365;903;0;1
Andaraí;BA;0;13960;13955;3761;2218;1543;7730;5144;0.5550;0.5400;0.7640;0.4150;-41.3246;-12.8014;416.6532;1590.3160;Chapada Diamantina;D;13153;Rural Adjacente;6281;5170;29873;50087;91411;3617;95028;6920.0000;Administração, defesa, educação e saúde públicas e seguridade social;35353283;143;2;0;4;0;0;2;66;1;18;1;0;2;0;9;3;22;0;1;12;0;0;0;0;1;1;1;1;551;733;0;3
Andirá;PR;0;20610;20610;6664;6278;386;19308;1165;0.7250;0.6900;0.8380;0.6600;-50.2264;-23.0518;491.0449;236.0750;Norte Pioneiro;D;20139;Urbano;64695;157787;302032;89729;614243;71362;685605;32927.0000;Demais serviços;60953205;511;13;1;56;0;3;15;245;33;28;5;2;2;19;17;3;11;22;7;29;0;0;0;0;2;1;2;1;7174;3386;0;2
Andorinha;BA;0;14414;14414;4625;2055;2570;6199;4458;0.5880;0.5860;0.7310;0.4740;-39.8323;-10.3442;414.5499;1362.3860;0;0;14690;Rural Adjacente;9030;58657;47212;52118;167016;5200;172216;11074.0000;Indústrias extrativas;33934328;109;0;1;4;0;0;1;72;7;2;1;0;0;0;4;3;2;3;4;5;0;0;0;0;0;0;0;0;1141;1356;0;3
Andradas;MG;0;37270;37243;12232;9405;2827;27784;926;0.7340;0.7310;0.8780;0.6170;-46.5756;-22.0728;878.9043;469.3960;Caminhos Gerais;D;40747;Urbano;114164;143065;361549;146269;765047;89842;854890;21157.0000;Demais serviços;63069636;1349;14;16;237;0;3;45;565;74;128;15;9;14;33;45;3;42;49;13;44;0;0;0;0;3;2;2;2;15060;6586;0;5
Andradina;SP;0;55334;55288;18106;16890;1216;49207;142;0.7790;0.7620;0.8850;0.7020;-51.3788;-20.9015;392.0173;964.2260;Tietê Vivo;C;57112;Urbano;119854;1495549;1042418;216897;2874717;235010;3109727;54271.0000;Indústrias de transformação;138287448;1707;34;2;72;2;3;44;876;100;120;21;10;13;58;106;4;32;99;22;89;0;0;0;0;4;2;3;2;22374;14223;0;1
Andrelândia;MG;0;12173;12167;3972;3226;746;9735;1921;0.7000;0.6750;0.8180;0.6210;-44.3177;-21.7370;956.2010;1005.2850;0;0;12242;Intermediário Adjacente;39438;13030;79425;47901;179795;15545;195341;15618.0000;Demais serviços;23530223;274;16;3;16;0;0;4;127;18;21;4;0;1;11;4;2;7;16;7;17;0;0;0;0;0;1;0;1;3113;889;0;1
André Da Rocha;RS;0;1216;1216;425;175;250;427;1310;0.7200;0.7380;0.8370;0.6050;-51.5737;-28.6320;704.8762;329.4000;0;0;1324;Rural Adjacente;92114;3355;15947;9395;120810;2730;123540;95031.0000;Agricultura, inclusive apoio à agricultura e a pós colheita;10211816;51;7;0;3;1;0;0;17;5;5;0;3;0;1;1;1;1;0;1;5;0;0;0;0;0;0;0;0;449;57;0;1
Angatuba;SP;0;22210;22199;7052;5059;1993;15904;1351;0.7190;0.6930;0.8270;0.6480;-48.4068;-23.4840;628.2864;1027.2880;Roteiro Fogão E Viola;D;24969;Intermediário Adjacente;154078;176165;336359;93211;759813;74604;834417;34197.0000;Demais serviços;0;935;409;1;30;0;0;30;267;44;34;3;3;9;13;17;2;13;16;9;35;0;0;0;0;2;2;2;1;7211;3074;0;2
Angelim;PE;0;10202;10202;3002;1850;1152;5990;4807;0.5720;0.5550;0.7510;0.4480;-36.2848;-8.8904;639.9271;118.0370;0;0;11072;Rural Adjacente;43538;4451;17338;42060;107386;2983;110369;10066.0000;Pecuária, inclusive apoio à pecuária;0;48;0;0;4;0;0;0;21;0;3;0;0;0;1;4;3;1;0;0;11;0;0;0;0;0;0;0;0;826;756;0;1
Angelina;SC;0;5250;5247;1627;366;1261;1092;2264;0.6870;0.6990;0.7970;0.5810;-48.9835;-27.5823;440.5214;499.7760;Grande Florianópolis;D;4860;Rural Adjacente;48243;8702;29506;23511;109962;3651;113613;22732.0000;Agricultura, inclusive apoio à agricultura e a pós colheita;15125235;138;2;0;12;3;1;7;58;7;6;1;1;1;8;5;5;6;4;0;11;0;0;0;0;0;0;0;0;1831;1558;0;3
Angelândia;MG;0;8003;8003;2114;1119;995;4036;4223;0.5970;0.5940;0.7560;0.4730;-42.2665;-17.7278;864.3383;185.2110;Pedras Preciosas;E;8481;Rural Adjacente;20106;3432;19610;34036;77185;2690;79875;9395.0000;Administração, defesa, educação e saúde públicas e seguridade social;18397341;71;5;0;6;0;0;3;36;2;1;0;0;0;2;2;2;3;5;0;4;0;0;0;0;0;0;0;0;906;1264;0;1
Angical;BA;0;14073;14068;3801;1806;1995;6516;3598;0.6250;0.5640;0.7780;0.5560;-44.6958;-12.0067;471.0000;1530.0500;0;0;14017;Rural Adjacente;51161;5644;34025;49339;140169;3553;143722;9772.0000;Administração, defesa, educação e saúde públicas e seguridade social;29981612;80;4;0;11;0;0;2;44;2;1;0;1;0;1;2;2;1;0;1;8;0;0;0;0;1;1;1;1;692;1051;0;2
Angical Do Piauí;PI;0;6672;6672;2077;1639;438;5213;3487;0.6300;0.6100;0.7370;0.5550;-42.7439;-6.0872;191.9541;223.0600;0;0;6792;Rural Adjacente;3086;2085;16632;25096;46898;2508;49406;7387.0000;Administração, defesa, educação e saúde públicas e seguridade social;15685856;76;1;0;3;0;0;1;53;0;3;0;0;0;1;2;2;3;2;1;4;0;0;0;0;0;0;0;0;329;1429;0;1
Angico;TO;0;3175;3175;844;507;337;1934;3159;0.6480;0.5760;0.7730;0.6120;-47.8621;-6.3878;270.8336;451.7330;0;0;3417;Rural Adjacente;16115;1111;4809;20988;43022;998;44021;12943.0000;Administração, defesa, educação e saúde públicas e seguridade social;8555456;40;1;0;0;0;0;5;25;2;0;0;0;0;2;0;2;1;0;0;2;0;0;0;0;0;0;0;0;139;385;0;1
Angicos;RN;0;11549;11549;3277;2865;412;10029;3613;0.6240;0.6060;0.7560;0.5300;-36.6054;-5.6604;104.8118;741.5820;0;0;11724;Intermediário Adjacente;4035;7997;44980;54088;111099;8229;119328;10021.0000;Administração, defesa, educação e saúde públicas e seguridade social;0;176;4;1;15;1;0;6;105;5;4;3;1;1;3;2;4;7;2;5;7;0;0;0;0;0;2;0;2;1254;1894;0;1
Angra Dos Reis;RJ;0;169511;169071;53512;51698;1814;150897;1209;0.7240;0.7400;0.8460;0.6050;-44.3196;-23.0091;7.6356;813.2100;Costa Verde;A;200407;Urbano;41516;2771018;4051525;1653972;8518031;604530;9122561;47636.0000;Demais serviços;785075940;3463;8;4;151;0;11;134;1448;78;578;37;23;39;123;330;8;104;120;58;209;0;0;10;936;10;2;3;2;34896;15307;1;5
Anguera;BA;0;10242;10242;2534;1183;1351;4296;4424;0.5890;0.5650;0.7660;0.4710;-39.2485;-12.1496;238.0813;187.8400;0;0;11142;Rural Adjacente;3195;3111;19505;32363;58173;3631;61805;5420.0000;Administração, defesa, educação e saúde públicas e seguridade social;0;58;0;0;3;0;0;1;35;2;0;0;0;1;0;5;2;1;0;0;8;0;0;0;0;0;0;0;0;528;621;0;1
Angélica;MS;0;9185;9182;3038;2542;496;6758;2008;0.6970;0.6920;0.8390;0.5820;-53.7697;-22.1561;360.9227;1273.2680;0;0;10620;Rural Adjacente;286060;151557;103986;58780;600383;27123;627506;60899.0000;Agricultura, inclusive apoio à agricultura e a pós colheita;0;208;7;0;12;0;3;6;86;31;12;2;1;1;9;5;3;4;5;1;20;0;0;0;0;1;1;1;1;2805;1844;0;2
Anhanguera;GO;0;1020;1020;353;333;20;950;1168;0.7250;0.7240;0.8020;0.6570;-48.2174;-18.3344;546.6775;56.9500;0;0;1137;Rural Adjacente;1917;1051;4088;8384;15439;497;15935;14292.0000;Administração, defesa, educação e saúde públicas e seguridade social;9630590;16;0;1;2;0;0;1;4;2;1;0;0;0;0;0;3;1;0;0;1;0;0;0;0;0;0;0;0;313;127;0;1
Anhembi;SP;0;5653;5644;1799;1335;464;4223;1289;0.7210;0.6810;0.8630;0.6370;-48.1269;-22.7863;460.9170;736.5570;Pólo Turístico Cuesta;D;6627;Rural Adjacente;47749;18665;29752;29410;125576;3122;128698;20118.0000;Agricultura, inclusive apoio à agricultura e a pós colheita;28251700;139;42;4;4;0;0;3;49;9;8;1;1;0;3;8;2;1;0;3;1;0;0;0;0;0;0;0;0;1469;227;0;2
Anhumas;SP;0;3738;3726;1156;953;203;3038;745;0.7410;0.6830;0.8450;0.7060;-51.3861;-22.2932;469.7525;320.8400;0;0;4085;Urbano;24627;5622;17491;18392;66133;1874;68007;16892.0000;Agricultura, inclusive apoio à agricultura e a pós colheita;16208660;98;23;0;6;0;0;4;43;4;5;0;1;0;0;2;2;1;0;0;7;0;0;0;0;0;0;0;0;1152;356;0;1
Anicuns;GO;0;20239;20233;6830;5829;1001;16804;1493;0.7140;0.6950;0.8340;0.6270;-49.9591;-16.4607;699.9645;979.2300;0;0;21717;Intermediário Adjacente;96835;88717;121335;79758;386645;22013;408657;18907.0000;Demais serviços;51770284;490;5;0;65;0;1;12;218;84;16;0;0;1;17;23;6;10;11;6;15;0;0;0;0;2;2;2;2;5540;3450;0;3
Anita Garibaldi;SC;0;8623;8623;2709;1465;1244;4531;2243;0.6880;0.6670;0.8260;0.5920;-51.1312;-27.6838;886.2327;587.9940;Serra Catarinense;D;7313;Rural Adjacente;39123;8716;46777;38396;133012;6104;139116;18048.0000;Administração, defesa, educação e saúde públicas e seguridade social;22182781;200;0;0;17;0;0;6;94;17;12;2;0;0;8;5;2;9;6;4;18;0;0;0;0;0;1;0;1;3135;1026;0;2
Anitápolis;SC;0;3214;3214;1075;465;610;1315;2578;0.6740;0.6990;0.8360;0.5240;-49.1316;-27.9099;444.1830;540.6360;Grande Florianópolis;D;3236;Rural Adjacente;19562;3522;18218;16562;57865;1993;59858;18412.0000;Administração, defesa, educação e saúde públicas e seguridade social;13303415;95;1;2;10;1;0;4;34;2;5;2;0;1;9;6;5;4;4;0;5;0;0;0;0;0;0;0;0;1119;821;0;1
Anori;AM;0;16317;16296;2981;2063;918;9976;5030;0.5610;0.5400;0.7570;0.4330;-61.6590;-3.7454;20.3462;6036.3800;0;0;20538;Rural Remoto;79417;4752;20474;70733;175375;1818;177193;8972.0000;Administração, defesa, educação e saúde públicas e seguridade social;25903648;76;0;0;2;0;0;2;64;0;0;0;0;0;0;1;2;1;0;0;4;0;0;0;0;0;0;0;0;17;395;0;1
Anta Gorda;RS;0;6073;6073;1939;828;1111;2313;789;0.7400;0.7420;0.8680;0.6300;-52.0158;-28.9709;423.6256;242.2620;Vale Do Taquari;E;6003;Rural Adjacente;62970;12689;63719;28793;168171;19189;187361;30142.0000;Agricultura, inclusive apoio à agricultura e a pós colheita;17180383;334;1;1;49;0;3;7;123;50;25;1;3;3;6;6;7;10;12;1;26;0;0;0;0;0;1;0;1;2805;716;0;1
Antas;BA;0;17072;17072;4646;1755;2891;6313;4367;0.5920;0.5730;0.7390;0.4910;-38.3310;-10.4127;432.8269;321.6060;0;0;19093;Rural Adjacente;12995;5045;37225;53027;108292;4302;112595;5809.0000;Administração, defesa, educação e saúde públicas e seguridade social;0;98;0;1;4;0;0;1;69;1;2;1;0;0;0;4;2;0;4;0;9;0;0;0;0;0;0;0;0;572;1284;0;1
Antonina;PR;0;18891;18866;5819;4957;862;15510;2260;0.6870;0.6860;0.8380;0.5640;-48.7129;-25.4302;9.9764;882.3170;Litoral Do Paraná;D;19011;Intermediário Adjacente;12968;221099;175388;81199;490653;34593;525246;27049.0000;Eletricidade e gás, água, esgoto, atividades de gestão de resíduos e descontaminação;38345841;323;3;1;22;0;1;11;141;11;36;7;6;2;16;16;2;7;3;2;36;0;0;1;24;1;2;1;2;3128;1363;0;2
Antonina Do Norte;CE;0;6984;6984;2005;1499;506;4995;4191;0.5990;0.5500;0.7720;0.5060;-39.9824;-6.7797;387.2471;260.1040;0;0;7328;Rural Adjacente;1797;2067;18448;26423;48735;2731;51467;7096.0000;Administração, defesa, educação e saúde públicas e seguridade social;0;39;0;0;4;0;0;0;25;0;0;1;0;0;0;1;2;1;2;0;3;0;0;0;0;0;0;0;0;478;1595;0;2
Antônio Almeida;PI;0;3039;3039;871;633;238;2203;3705;0.6200;0.5790;0.7810;0.5270;-44.1965;-7.2194;251.7919;645.7480;0;0;3158;Rural Remoto;8894;10946;8720;14325;42885;3003;45887;14760.0000;Administração, defesa, educação e saúde públicas e seguridade social;11567551;44;0;4;0;0;0;3;22;6;1;0;0;0;0;1;2;1;1;0;3;0;0;1;18;0;0;0;0;118;493;0;1
Antônio Cardoso;BA;0;11554;11554;2898;903;1995;3218;5039;0.5610;0.5440;0.7680;0.4220;-39.1187;-12.4348;167.9557;293.5300;0;0;11691;Rural Adjacente;7111;4391;32774;39038;83313;7584;90898;7451.0000;Administração, defesa, educação e saúde públicas e seguridade social;0;23;0;0;1;0;0;4;8;3;2;0;0;0;0;0;4;1;0;0;0;0;0;0;0;0;0;0;0;509;782;0;1
Antônio Carlos;SC;0;7458;7458;2274;737;1537;2341;572;0.7490;0.7680;0.8900;0.6150;-48.7650;-27.5134;19.0948;233.0430;Grande Florianópolis;D;8411;Urbano;230529;127518;155766;41599;555412;43838;599250;72875.0000;Agricultura, inclusive apoio à agricultura e a pós colheita;31527835;377;5;6;53;0;0;18;143;24;8;11;7;8;25;23;4;8;5;15;14;0;0;0;0;0;2;0;2;3518;2044;0;1
Antônio Carlos;MG;0;11114;11108;3470;2495;975;7825;2379;0.6830;0.6500;0.8380;0.5840;-43.7556;-21.3186;1059.3339;529.9150;Trilha Dos Inconfidentes;D;11432;Urbano;22020;20999;46106;42387;131512;9401;140913;12164.0000;Administração, defesa, educação e saúde públicas e seguridade social;0;143;7;1;20;0;0;3;62;8;7;0;1;0;3;8;3;10;3;2;5;0;0;0;0;0;1;0;1;2624;1198;0;4
Antônio Dias;MG;0;9565;9565;2878;1401;1477;4662;3220;0.6450;0.6240;0.8490;0.5070;-42.8695;-19.6515;445.4637;787.0610;0;0;9363;Rural Adjacente;21792;22126;47511;42014;133444;11281;144725;14982.0000;Administração, defesa, educação e saúde públicas e seguridade social;23779361;114;6;3;2;0;0;3;36;16;14;1;0;1;2;6;2;5;5;0;12;0;0;0;0;1;0;1;0;1532;996;0;2
Antônio Gonçalves;BA;0;11015;11015;3092;1659;1433;5770;4206;0.5980;0.5800;0.7410;0.4980;-40.2757;-10.5758;500.5641;345.2830;0;0;11715;Rural Adjacente;5278;3502;17308;35293;61381;2158;63539;5300.0000;Administração, defesa, educação e saúde públicas e seguridade social;0;101;0;2;1;0;0;2;53;0;4;1;0;0;1;1;2;2;1;0;31;0;0;0;0;0;0;0;0;582;791;0;1
Antônio João;MS;0;8208;8179;2241;1949;292;6065;3234;0.6430;0.6330;0.7990;0.5260;-55.9481;-22.1947;691.6796;1145.1750;0;0;8891;Rural Adjacente;76641;8172;49934;49293;184040;16104;200144;22889.0000;Agricultura, inclusive apoio à agricultura e a pós colheita;28193377;76;2;0;3;0;0;0;43;1;5;0;0;1;1;2;3;4;2;2;7;0;0;1;22;1;0;1;0;1681;687;0;1
Antônio Martins;RN;0;6907;6907;2095;1167;928;3774;4693;0.5780;0.5540;0.7600;0.4580;-37.8857;-6.2160;325.1789;244.8970;0;0;7137;Rural Adjacente;1623;3540;10481;32512;48155;1596;49751;6890.0000;Administração, defesa, educação e saúde públicas e seguridade social;14572484;71;0;0;3;0;0;2;25;0;2;0;0;0;1;2;2;1;4;1;28;0;0;0;0;0;0;0;0;446;995;0;1
Antônio Olinto;PR;0;7351;7351;2434;221;2213;677;3004;0.6560;0.6260;0.8250;0.5470;-50.1979;-25.9867;814.2806;469.6200;0;0;7441;Rural Adjacente;90186;10751;26722;32535;160195;5403;165598;21841.0000;Agricultura, inclusive apoio à agricultura e a pós colheita;18874532;85;5;2;9;0;0;2;35;6;6;0;0;0;1;2;2;5;2;1;7;0;0;0;0;0;0;0;0;2217;1032;0;8
Antônio Prado;RS;0;12833;12828;4247;3180;1067;6081;417;0.7580;0.7770;0.8350;0.6710;-51.2836;-28.8554;640.4363;348.1480;Uva E Vinho;D;13055;Rural Adjacente;63291;134647;188112;60786;446837;66837;513674;38634.0000;Demais serviços;37029748;810;4;4;171;1;3;32;287;87;46;5;9;7;25;22;6;19;23;17;42;0;0;0;0;0;3;0;3;5852;1014;0;1
Antônio Prado De Minas;MG;0;1671;1671;556;349;207;1003;2344;0.6840;0.6740;0.8300;0.5720;-42.1093;-21.0182;331.8212;83.8020;Serra Do Brigadeiro;E;1609;Rural Adjacente;3785;984;5684;10236;20689;621;21310;12761.0000;Administração, defesa, educação e saúde públicas e seguridade social;0;44;0;0;2;0;1;1;18;7;4;0;1;0;2;0;2;2;0;0;4;0;0;0;0;0;0;0;0;398;359;0;1
Anápolis;GO;0;334613;333947;104418;102621;1797;301151;869;0.7370;0.7370;0.8220;0.6600;-48.9572;-16.3288;1023.4352;933.1560;Região Turística Dos Negócios E Tradições;B;381970;Urbano;54165;3712361;5874020;1426500;11067047;2051712;13118759;35372.0000;Demais serviços;990890692;9170;41;5;963;3;28;501;4047;407;448;121;175;205;407;613;6;377;308;113;402;0;0;7;627;22;15;4;3;134923;73452;1;10
Anísio De Abreu;PI;0;9098;9098;2568;1324;1244;4496;4288;0.5940;0.5340;0.7680;0.5120;-43.0349;-9.1749;434.1161;337.8770;0;0;9818;Rural Adjacente;2811;2778;21146;37314;64049;4283;68332;7077.0000;Administração, defesa, educação e saúde públicas e seguridade social;0;69;0;0;2;0;1;2;49;1;1;0;0;0;0;2;5;3;1;0;2;0;0;0;0;0;0;0;0;441;906;0;1
Aparecida;SP;0;35007;34962;10341;10161;180;34084;458;0.7550;0.7350;0.8280;0.7060;-45.2294;-22.8482;582.2604;121.0760;Fé;A;36129;Urbano;1863;155047;758103;142824;1057836;57167;1115003;30760.0000;Demais serviços;91052277;1974;52;3;66;0;2;18;1171;27;429;11;3;3;36;38;2;23;28;15;47;0;0;15;1922;3;2;2;2;12667;4636;0;1
Aparecida;PB;0;7676;7676;2209;1056;1153;3635;4670;0.5780;0.5670;0.7470;0.4560;-38.0833;-6.7837;215.4375;295.7050;Vale Dos Dinossauros;E;8337;Rural Adjacente;6958;3557;21268;36294;68078;4445;72523;8687.0000;Administração, defesa, educação e saúde públicas e seguridade social;14746170;100;2;1;9;0;0;1;52;0;3;0;1;0;0;2;2;14;1;0;12;0;0;0;0;0;0;0;0;450;1299;0;1
Aparecida D'Oeste;SP;0;4450;4444;1560;1295;265;3623;1288;0.7210;0.6970;0.8040;0.6700;-50.8856;-20.4508;423.2461;179.0040;0;0;4234;Intermediário Adjacente;27409;17120;31276;18322;94127;4312;98439;22567.0000;Demais serviços;16106956;111;10;0;4;0;0;1;55;4;10;2;0;0;1;0;5;2;6;1;10;0;0;0;0;1;0;1;0;1871;591;0;1
Aparecida De Goiânia;GO;0;455657;455315;136583;136408;176;452266;1367;0.7180;0.7160;0.8340;0.6200;-49.2433;-16.8221;827.0000;278.5390;Região Turística Dos Negócios E Tradições;C;565957;Urbano;10267;2468260;6057955;1783782;10320265;1660720;11980985;22515.0000;Demais serviços;0;8947;19;12;1355;2;45;744;3803;318;414;158;115;100;334;645;5;323;184;87;284;0;0;2;43;13;12;3;2;138951;102673;0;6
Aparecida Do Rio Doce;GO;0;2427;2427;818;659;159;1940;2107;0.6930;0.7000;0.8140;0.5830;-51.1515;-18.2970;569.5319;602.1330;0;0;2474;Rural Adjacente;34699;3356;15233;17228;70515;3388;73902;29396.0000;Pecuária, inclusive apoio à pecuária;0;59;1;0;4;0;0;1;31;2;1;1;0;0;3;2;6;2;2;2;1;0;0;0;0;0;0;0;0;623;302;0;1
Aparecida Do Rio Negro;TO;0;4213;4209;1254;975;279;3307;3108;0.6510;0.5930;0.7910;0.5880;-47.9767;-9.9559;267.0708;1160.3680;0;0;4741;Intermediário Adjacente;28055;2306;11869;28513;70743;2783;73526;15738.0000;Administração, defesa, educação e saúde públicas e seguridade social;12715142;47;1;0;5;0;0;0;27;5;1;0;0;0;0;3;2;0;0;0;3;0;0;2;67;0;0;0;0;412;713;0;1
Aparecida Do Taboado;MS;0;22320;22290;7513;6728;785;18228;1996;0.6970;0.7170;0.8040;0.5880;-51.0976;-20.0850;392.2656;2750.1500;Costa Leste;D;25431;Urbano;174676;266245;238651;140178;819749;73752;893501;36108.0000;Demais serviços;71995120;746;25;4;58;1;3;25;322;86;51;16;5;5;24;32;2;11;42;10;24;0;0;0;0;1;2;1;2;6989;5283;0;1
Aperibé;RJ;0;10213;10213;3459;3000;459;8854;2151;0.6920;0.6700;0.7850;0.6310;-42.1049;-21.6194;65.9309;94.5420;Águas Do Noroeste;D;11612;Intermediário Adjacente;7331;14050;57315;80675;159371;8649;168019;15055.0000;Administração, defesa, educação e saúde públicas e seguridade social;0;269;2;5;59;0;2;10;120;10;6;1;0;1;6;4;2;10;7;5;19;0;0;0;0;2;0;2;0;2368;3396;0;3
Apiacá;ES;0;7512;7512;2458;1772;686;5211;2607;0.6730;0.6590;0.8410;0.5490;-41.5634;-21.1564;115.3891;193.9840;0;0;7580;Rural Adjacente;20391;5020;29211;35200;89822;3460;93282;11766.0000;Administração, defesa, educação e saúde públicas e seguridade social;0;149;0;2;9;0;0;7;79;4;11;1;0;0;6;6;3;5;4;4;8;0;0;0;0;0;1;0;1;2395;1310;0;3
Apiacás;MT;0;8567;8545;2527;1864;663;4709;2559;0.6750;0.6660;0.8090;0.5700;-57.3954;-9.5655;221.8814;20493.0650;0;0;9979;Rural Remoto;25385;6506;36272;54971;123134;9359;132494;13872.0000;Administração, defesa, educação e saúde públicas e seguridade social;26285675;145;8;1;19;0;0;1;77;6;4;4;0;0;5;5;4;1;3;0;7;0;0;1;22;0;0;0;0;588;2636;0;1
Apiaí;SP;0;25191;25187;7582;5522;2060;18138;1602;0.7100;0.6620;0.8350;0.6470;-48.8487;-24.5133;925.8538;974.3220;Cavernas Da Mata Atlântica;D;24526;Intermediário Adjacente;158668;104447;219566;88969;571650;42709;614359;24499.0000;Demais serviços;55210018;826;226;2;28;0;0;23;300;60;53;6;5;1;22;31;2;15;20;8;24;0;0;1;25;2;2;2;2;5753;3221;0;4
Apicum-Açu;MA;0;14959;14959;3401;2085;1316;9097;4901;0.5680;0.5290;0.7180;0.4830;-45.0767;-1.5306;10.5788;340.2880;0;0;17063;Rural Remoto;15179;4029;24630;56253;100091;3629;103720;5709.0000;Administração, defesa, educação e saúde públicas e seguridade social;38906474;77;0;0;2;0;0;2;38;0;0;2;0;0;0;0;3;17;0;0;13;0;0;0;0;1;0;1;0;153;673;0;1
Apiúna;SC;0;9600;9600;3028;1385;1643;3607;1692;0.7080;0.7350;0.8270;0.5840;-49.3916;-27.0418;132.0897;492.6440;Vale Europeu;D;10636;Rural Adjacente;13918;156115;105858;48780;324671;62078;386749;37073.0000;Indústrias de transformação;36431515;412;11;0;128;0;0;8;111;27;29;5;1;4;10;25;6;14;5;7;21;0;0;0;0;1;1;1;1;3935;1126;0;1
Apodi;RN;0;34763;34763;10026;5176;4850;17487;3321;0.6390;0.6110;0.7470;0.5710;-37.7978;-5.6638;76.2446;1602.4770;Polo Serrano;C;35814;Intermediário Adjacente;66153;42618;134412;148414;391597;28037;419633;11574.0000;Administração, defesa, educação e saúde públicas e seguridade social;0;367;3;4;39;0;2;16;173;6;14;7;0;2;5;10;2;29;9;3;43;0;0;2;140;1;3;1;3;3757;10060;0;2
Aporá;BA;0;17731;17731;5183;2519;2664;8471;5234;0.5480;0.5160;0.7510;0.4250;-38.0800;-11.6554;190.1098;479.2620;0;0;17673;Rural Adjacente;16105;6982;30612;60967;114665;3561;118226;6150.0000;Administração, defesa, educação e saúde públicas e seguridade social;0;90;1;0;3;0;1;1;66;2;3;0;0;0;1;3;2;2;1;1;3;0;0;0;0;0;0;0;0;831;1687;0;2
Aporé;GO;0;3803;3788;1271;839;432;2490;2109;0.6930;0.6920;0.8230;0.5840;-51.9281;-18.9589;556.3527;2900.0530;0;0;4163;Rural Adjacente;110397;121407;36779;23598;292180;10354;302534;73609.0000;Eletricidade e gás, água, esgoto, atividades de gestão de resíduos e descontaminação;0;45;2;0;3;2;0;0;18;2;5;1;0;0;3;2;5;1;0;0;1;0;0;0;0;0;1;0;1;898;373;0;1
Apuarema;BA;0;7459;7459;2141;1474;667;5112;5185;0.5520;0.5550;0.7350;0.4130;-39.7421;-13.8532;272.5486;150.8300;0;0;7360;Rural Adjacente;15710;3194;17833;27490;64227;3688;67914;8769.0000;Administração, defesa, educação e saúde públicas e seguridade social;0;52;0;0;1;0;0;0;31;1;1;0;0;0;0;3;2;8;1;0;4;0;0;0;0;0;0;0;0;314;588;0;1
Apucarana;PR;0;120919;120716;38514;36467;2047;107880;593;0.7480;0.7410;0.8450;0.6680;-51.4600;-23.5516;866.2810;558.3890;Vale Do Ivaí;C;133726;Urbano;111920;616639;1426996;516489;2672043;293739;2965782;22541.0000;Demais serviços;0;5258;56;4;1241;0;18;196;1924;248;236;82;92;106;185;271;6;135;200;67;191;0;0;1;68;7;3;3;2;49181;19174;0;7
Apuiarés;CE;0;13925;13913;3890;1653;2237;5766;3738;0.6180;0.5360;0.7410;0.5930;-39.4304;-3.9480;81.4219;545.1580;0;0;14814;Rural Adjacente;4148;11594;24718;47794;88254;4666;92920;6345.0000;Administração, defesa, educação e saúde públicas e seguridade social;32081247;93;1;0;3;0;0;4;59;1;3;0;0;0;1;0;2;2;1;0;16;0;0;0;0;0;0;0;0;802;2842;0;3
Apuí;AM;0;18007;18007;4614;2721;1893;10540;3368;0.6370;0.6210;0.7720;0.5400;-59.8857;-7.1979;132.9811;54240.5560;0;0;21583;Intermediário Remoto;60354;12501;35644;74532;183031;2244;185275;8810.0000;Administração, defesa, educação e saúde públicas e seguridade social;32300675;166;1;0;5;0;2;5;110;5;8;1;0;0;5;2;4;5;4;1;8;0;0;1;32;1;0;1;0;327;2458;0;1
Aquidabã;SE;0;20056;20056;5994;3520;2474;11422;4682;0.5780;0.5730;0.7470;0.4520;-37.0222;-10.2925;220.4098;359.5430;0;0;21443;Intermediário Adjacente;49822;12235;66874;91673;220603;12814;233417;10881.0000;Administração, defesa, educação e saúde públicas e seguridade social;33064256;160;1;0;7;0;1;2;98;3;5;1;1;0;4;3;4;7;5;4;14;0;0;0;0;1;2;1;2;1470;3093;0;1
Aquidauana;MS;0;45614;45455;12472;10970;1502;35080;2227;0.6880;0.6900;0.8400;0.5620;-55.7906;-20.4747;152.4602;16970.7110;Pantanal;C;47784;Urbano;153002;91375;316480;249920;810777;67935;878711;18568.0000;Administração, defesa, educação e saúde públicas e seguridade social;107940983;788;30;2;39;1;1;16;373;18;65;19;10;3;30;26;3;40;36;10;66;0;0;9;366;3;2;2;2;7671;8943;0;5
Aquiraz;CE;0;72628;72447;19694;18508;1186;27233;3282;0.6410;0.6080;0.7880;0.5500;-38.3898;-3.9062;22.7593;480.9970;Litoral Leste;B;79563;Urbano;82216;510291;809034;293325;1694866;449366;2144232;27337.0000;Demais serviços;218853602;1132;17;5;130;0;6;75;463;38;99;15;9;19;33;122;6;19;14;15;47;0;0;2;101;1;2;1;2;9362;9135;0;8
Arabutã;SC;0;4193;4193;1343;445;898;1303;943;0.7330;0.7440;0.8630;0.6140;-52.1486;-27.1574;480.1771;133.0140;0;0;4266;Rural Adjacente;41496;12930;23255;23005;100686;6040;106727;24948.0000;Pecuária, inclusive apoio à pecuária;17606493;181;2;0;20;0;5;5;37;31;8;0;2;0;5;3;2;3;4;13;41;0;0;0;0;0;0;0;0;1623;664;0;2
Aracaju;SE;1;571149;570674;169830;169830;0;566369;230;0.7700;0.7840;0.8230;0.7080;-37.0482;-10.9072;4.2883;182.1630;Polo Costa Dos Coqueirais;A;648939;Urbano;2679;2624804;9244912;2652552;14524947;1973535;16498482;25718.0000;Demais serviços;1300130786;14534;23;14;721;5;21;717;5262;358;1078;349;182;287;1081;1634;38;565;971;265;963;0;0;0;0;20;51;5;4;173933;78612;1;14
Aracati;CE;0;69159;69018;19811;12836;6975;43879;3016;0.6550;0.6070;0.7420;0.6240;-37.7728;-4.5671;10.4008;1230.5070;Litoral Leste;B;74084;Urbano;116909;256318;505133;226949;1105310;109267;1214577;16595.0000;Demais serviços;142346366;1090;62;0;79;1;3;31;545;16;156;13;3;16;29;34;3;25;25;11;38;0;0;3;89;2;3;2;3;7674;12262;0;17
Aracatu;BA;0;13743;13743;3657;1103;2554;3933;4626;0.5810;0.5910;0.7540;0.4390;-41.4617;-14.4266;737.2820;1489.8040;0;0;13229;Rural Adjacente;13554;4699;25824;41199;85276;4074;89349;6372.0000;Administração, defesa, educação e saúde públicas e seguridade social;29476471;113;1;0;2;0;0;6;73;3;3;2;0;1;1;5;2;2;4;1;7;0;0;1;30;0;0;0;0;1075;1070;0;1
Araci;BA;0;51651;51651;13643;5643;8000;19588;5368;0.5340;0.5340;0.7470;0.3810;-38.9610;-11.3357;267.9389;1495.5540;Caminhos Do Sertão;D;54099;Rural Adjacente;60257;23249;121535;172927;377968;13926;391894;7044.0000;Administração, defesa, educação e saúde públicas e seguridade social;99615019;450;2;2;12;0;0;21;209;18;13;7;3;0;8;14;3;12;12;4;110;0;0;0;0;1;3;1;3;3572;3334;0;1
Aracitaba;MG;0;2058;2058;701;580;121;1640;2880;0.6610;0.6080;0.8230;0.5770;-43.3816;-21.3393;596.3781;106.6080;0;0;2066;Rural Adjacente;2814;1164;5864;11703;21545;611;22156;10491.0000;Administração, defesa, educação e saúde públicas e seguridade social;9314086;38;0;1;2;0;0;1;11;1;3;0;0;0;1;2;2;1;0;3;10;0;0;0;0;0;0;0;0;369;211;0;1
Aracoiaba;CE;0;25391;25391;7042;3910;3132;13713;3807;0.6150;0.5500;0.7590;0.5560;-38.8094;-4.3704;122.8444;656.5970;0;0;26437;Rural Adjacente;17854;12091;58084;94362;182391;8610;191000;7289.0000;Administração, defesa, educação e saúde públicas e seguridade social;64913578;191;2;3;34;0;0;5;100;1;7;0;0;0;7;2;3;1;2;2;22;0;0;0;0;1;1;1;1;1677;3830;0;17
Aracruz;ES;0;81832;81760;23158;20957;2201;71122;508;0.7520;0.7170;0.8380;0.7070;-40.2762;-19.8233;68.0630;1420.2850;Verde E Das Águas;C;99305;Urbano;56308;2365067;1155391;465507;4042273;567096;4609369;47644.0000;Indústrias de transformação;368641022;2178;31;21;209;1;9;119;779;113;157;36;29;18;136;139;3;114;100;38;126;0;0;4;286;3;6;3;3;21019;11173;0;0
Aragarças;GO;0;18305;18299;5814;5553;261;17403;982;0.7320;0.6940;0.8300;0.6800;-52.2469;-15.8978;313.6835;664.5300;Região Turística Vale Do Araguaia;C;19959;Urbano;8906;12568;108045;67179;196698;18379;215076;10898.0000;Demais serviços;33644300;307;2;1;21;0;2;7;181;11;24;4;0;0;10;10;5;13;5;3;8;0;0;0;0;1;1;1;1;7061;5657;0;1
Aragoiânia;GO;0;8365;8361;2699;1775;924;5518;2357;0.6840;0.6830;0.8370;0.5600;-49.4509;-16.9156;868.7610;218.6610;0;0;10116;Urbano;10152;12718;34272;34701;91843;7288;99130;10319.0000;Administração, defesa, educação e saúde públicas e seguridade social;22916113;173;3;1;23;0;1;11;96;2;1;3;0;3;6;5;2;4;5;2;5;0;0;0;0;0;0;0;0;2039;1512;0;1
Aragominas;TO;0;5882;5882;1694;647;1047;2222;4314;0.5930;0.6110;0.7390;0.4610;-48.5234;-7.1643;302.7352;1173.0350;0;0;5786;Rural Adjacente;20404;1058;6419;34493;62374;1496;63870;10849.0000;Administração, defesa, educação e saúde públicas e seguridade social;0;27;0;0;0;0;2;0;17;2;1;0;0;0;0;1;2;0;0;0;2;0;0;0;0;0;0;0;0;180;586;0;1
Araguacema;TO;0;6317;6313;1844;885;959;2868;3315;0.6390;0.5870;0.8050;0.5530;-49.5618;-8.8018;156.0000;2778.4520;Lagos E Praias Do Cantão;D;7016;Rural Remoto;33767;2621;15812;38710;90909;3699;94608;13644.0000;Administração, defesa, educação e saúde públicas e seguridade social;0;48;2;0;2;0;0;2;28;0;3;1;0;0;2;1;5;0;0;2;0;0;0;2;66;0;0;0;0;271;643;0;1
Araguaiana;MT;0;3197;3195;1087;745;342;1228;2262;0.6870;0.6710;0.8170;0.5910;-51.8336;-15.7312;292.8545;6422.9660;0;0;3119;Rural Adjacente;31624;1825;13914;21276;68640;4410;73050;23880.0000;Pecuária, inclusive apoio à pecuária;14396981;40;4;0;5;0;1;0;22;1;1;0;0;0;0;1;3;0;0;0;2;0;0;0;0;0;0;0;0;214;330;0;1
Araguainha;MT;0;1096;1096;387;330;57;944;1871;0.7010;0.6500;0.8440;0.6270;-53.0356;-16.8575;453.4124;688.3260;Região Turística Domo De Araguainha;D;956;Rural Remoto;3977;744;3643;9254;17618;866;18484;19395.0000;Administração, defesa, educação e saúde públicas e seguridade social;0;26;0;1;0;0;0;2;8;2;1;0;0;0;0;1;3;1;1;0;6;0;0;0;0;0;0;0;0;59;43;0;1
Araguanã;TO;0;5030;5030;1397;937;460;3373;4080;0.6040;0.6170;0.7560;0.4730;-48.6437;-6.5822;139.4512;836.0300;Vale Dos Grandes Rios;D;5663;Rural Adjacente;20059;2034;9665;33165;64924;1939;66863;11981.0000;Administração, defesa, educação e saúde públicas e seguridade social;0;35;2;1;0;0;0;1;18;2;1;0;0;1;3;1;2;0;0;1;2;0;0;0;0;0;0;0;0;263;524;0;1
Araguanã;MA;0;13973;13973;2975;1187;1788;5363;5373;0.5330;0.4830;0.7060;0.4440;-45.6688;-2.9491;19.1240;805.1930;0;0;15297;Rural Adjacente;12422;2744;17035;42391;74592;2696;77289;5091.0000;Administração, defesa, educação e saúde públicas e seguridade social;30554045;38;0;0;0;0;0;1;23;0;1;0;0;0;0;0;3;1;0;0;9;0;0;0;0;0;0;0;0;240;969;0;1
Araguapaz;GO;0;7510;7510;2578;1813;765;5167;2587;0.6740;0.6960;0.8140;0.5400;-50.6347;-15.0885;295.3289;2193.7000;0;0;7756;Rural Adjacente;40756;4542;32943;29923;108164;6493;114657;14623.0000;Pecuária, inclusive apoio à pecuária;19304600;128;5;3;6;0;1;1;76;10;6;0;3;1;2;3;2;2;2;0;5;0;0;0;0;1;0;1;0;1302;1367;0;1
Araguari;MG;0;109801;109682;35535;33050;2485;101933;200;0.7730;0.7400;0.8710;0.7160;-48.1916;-18.6483;925.1206;2729.5080;Alta Mogiana;C;116691;Urbano;348862;1396863;1391602;484609;3621936;301892;3923828;33574.0000;Demais serviços;0;3108;41;28;315;1;12;131;1402;191;190;59;25;22;113;175;5;67;116;40;175;0;0;0;0;4;2;4;2;39645;26020;0;5
Araguatins;TO;0;31329;31329;8166;5343;2823;20031;3478;0.6310;0.6040;0.7930;0.5250;-48.1235;-5.6506;116.2614;2625.2860;Bico Do Papagaio;D;35346;Intermediário Adjacente;31989;13508;121458;189076;356032;21227;377258;10838.0000;Administração, defesa, educação e saúde públicas e seguridade social;57118319;252;2;2;14;0;2;8;145;7;12;6;3;1;11;2;3;7;6;1;20;0;0;0;0;1;3;1;3;2129;7540;0;2
Araguaçu;TO;0;8786;8786;2938;1973;965;5832;2565;0.6750;0.6420;0.7960;0.6020;-49.8286;-12.9256;315.1678;5167.6520;0;0;8567;Rural Remoto;78932;4475;38473;51850;173731;7582;181312;20759.0000;Pecuária, inclusive apoio à pecuária;20537118;139;4;2;5;0;0;2;75;2;8;2;1;1;6;2;4;7;6;0;12;0;0;0;0;1;2;1;2;1188;1922;0;1
Araguaína;TO;0;150484;150426;43903;41682;2221;142289;512;0.7520;0.7270;0.8210;0.7120;-48.2087;-7.1913;235.2770;4000.4160;Vale Dos Grandes Rios;B;177517;Urbano;61742;426902;1947775;942343;3378762;426461;3805223;21981.0000;Demais serviços;338060665;3412;22;6;222;2;8;162;1666;131;178;52;27;43;182;147;16;115;208;40;185;0;0;5;445;5;7;2;3;32957;55965;0;4
Araioses;MA;0;42505;42505;10275;3011;7264;12310;5454;0.5210;0.4970;0.7090;0.4020;-41.8991;-2.8893;0.1042;1786.3450;Polo Delta Das Américas;D;46103;Rural Adjacente;41397;9847;69783;128254;249282;9837;259119;5672.0000;Administração, defesa, educação e saúde públicas e seguridade social;0;158;2;0;8;0;0;1;123;1;5;0;1;0;2;3;2;2;2;0;6;0;0;1;31;1;1;1;1;134;1503;0;1
Aral Moreira;MS;0;10251;10248;2605;1445;1160;5340;3435;0.6330;0.6280;0.7980;0.5070;-55.6308;-22.9479;608.8308;1655.6600;0;0;11963;Rural Adjacente;255838;21112;168836;68305;514090;67946;582036;50236.0000;Agricultura, inclusive apoio à agricultura e a pós colheita;36837180;101;4;1;4;0;0;2;51;3;5;0;0;1;7;5;2;3;2;2;9;0;0;0;0;0;1;0;1;1265;486;0;2
Aramari;BA;0;10036;10031;2686;1457;1229;5105;4460;0.5880;0.5680;0.7610;0.4700;-38.5031;-12.0882;216.2360;368.9480;Caminhos Do Sertão;E;11332;Rural Adjacente;17957;9969;18262;35416;81604;3276;84880;7455.0000;Administração, defesa, educação e saúde públicas e seguridade social;21840945;48;0;0;3;0;0;7;17;3;1;0;0;0;3;4;2;1;3;0;4;0;0;0;0;0;0;0;0;573;599;0;1
Arambaré;RS;0;3693;3693;1336;1063;273;2897;2175;0.6910;0.6940;0.8330;0.5700;-51.5013;-30.9093;6.7585;518.1930;Costa Doce;C;3600;Rural Adjacente;72377;5821;29379;20493;128070;3617;131687;35070.0000;Agricultura, inclusive apoio à agricultura e a pós colheita;14661149;101;6;1;2;0;0;2;43;4;18;0;1;0;1;2;2;6;1;4;8;0;0;0;0;0;0;0;0;1229;470;0;2
Arame;MA;0;31702;31702;6615;2926;3689;12430;5498;0.5120;0.5250;0.7010;0.3650;-46.0136;-4.8861;128.6437;2976.0390;0;0;32637;Rural Remoto;48302;8817;63630;91854;212602;9707;222309;6929.0000;Administração, defesa, educação e saúde públicas e seguridade social;51200062;186;1;0;3;0;1;0;115;1;2;0;0;0;4;4;2;34;3;2;14;0;0;0;0;1;0;1;0;336;4550;0;1
Aramina;SP;0;5152;5152;1653;1541;112;4811;767;0.7400;0.7230;0.8560;0.6560;-47.7860;-20.0899;625.0340;202.8290;Lagos Do Rio Grande;D;5585;Intermediário Adjacente;25800;5040;62206;23304;116350;9283;125633;22764.0000;Demais serviços;0;190;19;1;6;0;0;4;82;26;11;0;0;0;5;11;2;3;4;0;16;0;0;0;0;1;0;1;0;2095;249;0;1
Arandu;SP;0;6123;6114;1906;1442;464;4596;2311;0.6850;0.6750;0.8060;0.5920;-49.0510;-23.1334;633.0611;285.9080;0;0;6348;Intermediário Adjacente;59464;7937;33302;27460;128163;3110;131273;20640.0000;Agricultura, inclusive apoio à agricultura e a pós colheita;22354749;123;16;0;4;0;0;11;52;6;11;1;2;1;2;9;3;4;0;0;1;0;0;0;0;1;0;1;0;1582;519;0;1
Arantina;MG;0;2823;2823;932;864;68;2633;2019;0.6970;0.6330;0.8340;0.6410;-44.2470;-21.9161;1073.7728;89.4200;Serras De Ibitipoca;D;2804;Rural Adjacente;21867;3829;12042;14411;52149;1269;53418;18567.0000;Agricultura, inclusive apoio à agricultura e a pós colheita;11352761;58;1;0;5;0;0;2;33;0;3;1;0;0;2;3;2;3;0;2;1;0;0;0;0;0;0;0;0;742;328;0;1
Arapeí;SP;0;2493;2493;800;609;191;1836;2456;0.6800;0.6340;0.8120;0.6120;-44.4481;-22.6748;518.5469;156.9030;Vale Histórico;E;2478;Rural Adjacente;1886;1328;8103;13307;24623;1265;25889;10290.0000;Administração, defesa, educação e saúde públicas e seguridade social;11756457;59;24;0;0;1;0;0;21;1;3;1;0;1;1;0;2;3;0;0;1;0;0;0;0;0;0;0;0;701;218;0;1
Arapiraca;AL;0;214006;214006;58426;49779;8647;184819;3143;0.6490;0.6380;0.7800;0.5490;-36.6573;-9.7559;269.1145;345.6550;Agreste;B;230417;Urbano;370477;308357;2126985;805750;3611568;401063;4012632;17246.0000;Demais serviços;0;3992;18;3;265;0;9;155;2338;122;219;67;22;31;114;148;4;187;136;38;116;0;0;0;0;4;7;3;3;32730;56910;1;3
Arapoema;TO;0;6742;6736;1961;1567;394;5417;2457;0.6800;0.6450;0.8100;0.6010;-49.0756;-7.6526;209.4461;1552.2170;0;0;6670;Intermediário Adjacente;33343;3402;26739;38035;101519;4881;106400;15700.0000;Administração, defesa, educação e saúde públicas e seguridade social;13537891;70;2;1;5;0;0;1;40;1;1;1;0;0;4;3;4;1;1;1;4;0;0;0;0;0;1;0;1;476;1656;0;1
Araponga;MG;0;8152;8152;2373;962;1411;3022;5357;0.5360;0.5970;0.7600;0.3390;-42.5263;-20.6657;905.2062;303.7930;Serras De Minas;D;8425;Rural Adjacente;27378;3670;18895;30740;80683;2345;83027;9742.0000;Administração, defesa, educação e saúde públicas e seguridade social;16131509;97;0;0;10;0;0;3;54;3;1;0;1;0;1;2;2;5;3;0;12;0;0;0;0;0;0;0;0;1116;1843;0;2
Arapongas;PR;0;104150;103928;33178;32481;697;97967;596;0.7480;0.7510;0.8340;0.6690;-51.4383;-23.4135;801.9528;382.2150;Norte Do Paraná;C;121198;Urbano;188460;1321168;1600358;469966;3579951;450807;4030758;34463.0000;Demais serviços;185286189;4432;22;2;623;0;9;133;1909;390;187;48;87;79;189;251;9;134;196;33;131;0;0;1;45;9;3;3;2;45514;24268;0;4
Araporã;MG;0;6144;6141;1796;1712;84;5848;1678;0.7080;0.6760;0.8130;0.6460;-49.1901;-18.4419;447.8663;295.8370;Alta Mogiana;E;6804;Urbano;31077;757777;182854;46335;1018043;63784;1081827;161058.0000;Eletricidade e gás, água, esgoto, atividades de gestão de resíduos e descontaminação;47697279;185;4;2;10;0;1;17;66;40;9;0;1;1;5;12;3;0;2;1;11;0;0;0;0;1;0;1;0;1125;809;0;1
Arapoti;PR;0;25855;25763;7970;6695;1275;21650;1228;0.7230;0.7150;0.8230;0.6430;-49.8248;-24.1466;875.6984;1360.4940;Campos Gerais;C;27925;Urbano;212766;219768;332910;117831;883274;159004;1042279;37589.0000;Demais serviços;62713054;768;25;4;57;4;3;25;337;51;50;9;5;5;36;39;3;29;42;7;37;0;0;1;60;2;2;2;2;8036;2649;0;2
